"","X","sale_price","size","Address","Cities","Postal.Code","State","lon","lat","Full.Address","sqft","bath","bed","psf","Predicted.Occupancy.per.yr","ROI"
"1",1,340000,"3bd2ba1,452 sqft","29 Kirby Rd","Asheville",28806,"NC",-82.6360841,35.5508184,"29 kirby rd, asheville, nc 28806, usa",1452,2,3,234.16,207.7463513,0.0678230735077929
"2",2,315000,"2bd2ba1,020 sqft","17 Larchmont Rd","Asheville",28804,"NC",-82.5552081,35.6241461,"17 larchmont rd, asheville, nc 28804, usa",1020,2,2,308.82,209.3956997,0.0777977038886651
"3",3,595000,"4bd3ba2,068 sqft","82 Madison Ave","Asheville",28801,"NC",-82.54876,35.605963,"82 madison ave, asheville, nc 28801, usa",2068,3,4,287.72,234.6935452,0.0713884396769345
"4",4,349900,"3bd2ba1,566 sqft (on 0.29 acres)","138 Hemphill Rd","Asheville",28803,"NC",-82.484848,35.5642236,"138 hemphill rd, asheville, nc 28803, usa",1566,2,3,223.44,235.6871382,4.56997376182975
"5",5,745000,"3bd3ba1,896 sqft","23 Mauricet Ln","Asheville",28806,"NC",-82.5932109,35.5842065,"23 mauricet ln, asheville, nc 28806, usa",1896,3,3,392.93,203.0801554,0.0346386597366334
"6",6,350000,"3bd2ba1,412 sqft (on 1.20 acres)","37 Church Rd","Asheville",28804,"NC",-82.592639,35.6378669,"37 church rd, woodfin, nc 28804, usa",1412,2,3,247.88,230.8406129,0.0590512272501374
"7",7,285000,"2bd1ba945 sqft","55 Deaver Park Cir","Asheville",28806,"NC",-82.6244761,35.5793156,"55 deaver park cir, asheville, nc 28806, usa",945,1,2,301.59,190.0298312,0.0512927742426365
"8",8,925000,"4bd3ba2,509 sqft (on 0.36 acres)","42 Rosewood Ave","Asheville",28801,"NC",-82.5700823,35.6027028,"42 rosewood ave, asheville, nc 28801, usa",2509,3,4,368.67,194.3307952,0.0407982956774771
"9",9,650000,"3bd3ba2,466 sqft","10 Holland Mountain Vw","Asheville",28804,"NC",-82.5882751,35.6926283,"10 holland mountain vw, asheville, nc 28804, usa",2466,3,3,263.58,211.5795243,NA
"10",10,649000,"2bd3ba1,430 sqft (on 0.28 acres)","109 Thurland Ave","Asheville",28803,"NC",-82.5413349,35.5814223,"109 thurland ave, asheville, nc 28803, usa",1430,3,2,453.85,182.2608914,0.0288426326514029
"11",11,599900,"3bd3ba1,538 sqft","35 Rangeley Dr","Asheville",28803,"NC",-82.5158649,35.5373596,"35 rangeley dr, asheville, nc 28803, usa",1538,3,3,390.05,153.6908182,0.0455384946308918
"12",12,2490000,"4bd5ba3,782 sqft (on 0.67 acres)","325 Flowering Vine Ct","Asheville",28803,"NC",-82.5530804,35.5020185,"flowering vine ct, north carolina 28803, usa",3782,5,4,658.38,168.9837075,NA
"13",13,430000,"7bd3,108 sqft (on 1.58 acres)","18 Willow Ct","Asheville",28805,"NC",-82.478271,35.604754,"18 willow ct, asheville, nc 28805, usa",3108,NA,7,138.35,166.7256002,0.068418887282936
"14",14,249000,"3bd2ba1,523 sqft (on 0.48 acres)","25 Udell Ct","Asheville",28806,"NC",-82.6428369,35.5775058,"25 udell ct, asheville, nc 28806, usa",1523,2,3,163.49,160.3583149,0.0642567942617454
"15",15,795000,"3bd4ba2,883 sqft (on 0.69 acres)","10 Shackleford Dr","Asheville",28806,"NC",-82.6056036,35.5052697,"10 shackleford dr, asheville, nc 28806, usa",2883,4,3,275.75,177.5234132,0.0253774600334384
"16",16,699000,"3bd1ba1,260 sqft (on 1.16 acres)","71 Lanvale Ave","Asheville city",28806,"NC",-82.5984482,35.5781844,"71 lanvale ave, asheville, nc 28806, usa",1260,1,3,554.76,217.1600111,0.0393816255314956
"17",17,699000,"4bd3ba2,958 sqft (on 0.60 acres)","124 Overlook Rd","Asheville",28803,"NC",-82.5315835,35.4957701,"124 overlook rd, asheville, nc 28803, usa",2958,3,4,236.31,229.4480992,0.0311839333613029
"18",18,1200000,"4bd2ba2,264 sqft (on 9.32 acres)","320 Upper Grassy Branch Rd","Asheville",28805,"NC",-82.4860841,35.6057306,"320 upper grassy branch rd, asheville, nc 28805, usa",2264,2,4,530.04,188.9491399,0.0269036582486783
"19",19,649900,"4bd2ba2,191 sqft (on 1.49 acres)","320 Hi Alta Ave","Asheville",28806,"NC",-82.6280642,35.5809381,"320 hi alta ave, asheville, nc 28806, usa",2191,2,4,296.62,204.2519569,0.0517470290442517
"20",20,899000,"3bd3ba2,813 sqft (on 0.26 acres)","27 Acadia Dr","Asheville",28806,"NC",-82.6130099,35.6098797,"27 acadia dr, asheville, nc 28806, usa",2813,3,3,319.59,185.4832911,0.0233954175014103
"21",21,379900,"3bd3ba1,404 sqft","9 Arbutus Rd","Asheville",28805,"NC",-82.4935115,35.5854158,"9 arbutus rd, asheville, nc 28805, usa",1404,3,3,270.58,194.6540369,0.0522822092282056
"22",22,625000,"3bd2ba1,989 sqft","70 Longview Rd","Asheville",28806,"NC",-82.5718144,35.5760358,"70 longview rd, asheville, nc 28806, usa",1989,2,3,314.23,186.3481179,0.0388498556139512
"23",23,650000,"4bd3ba2,754 sqft (on 0.82 acres)","149 Pinners Cove Rd","Asheville",28803,"NC",-82.4955061,35.4991006,"149 pinners cove rd, asheville, nc 28803, usa",2754,3,4,236.02,166.4650944,0.0349935238461975
"24",24,750000,"4bd3ba2,976 sqft (on 0.74 acres)","305 E Sondley Dr","Asheville",28805,"NC",-82.4980539,35.6228322,"305 e sondley dr, asheville, nc 28805, usa",2976,3,4,252.02,240.3290386,0.0365300138601092
"25",25,345000,"3bd2ba1,271 sqft","3 Pelzer St","Asheville",28804,"NC",-82.5769683,35.6314643,"3 pelzer st, woodfin, nc 28804, usa",1271,2,3,271.44,213.3791869,0.0593943381130809
"26",26,1525000,"4bd4ba4,038 sqft (on 3.37 acres)","7 Snowbird Dr","Asheville",28804,"NC",-82.5051153,35.6288227,"7 snowbird dr, asheville, nc 28804, usa",4038,4,4,377.66,207.9751718,0.0272754323729371
"27",27,310000,"2bd2ba1,045 sqft","9 Rocking Porch Rd","Asheville",28805,"NC",-82.517331,35.5988309,"9 rocking porch rd, asheville, nc 28805, usa",1045,2,2,296.65,200.0366705,0.0467182417630126
"28",28,899000,"4bd3ba2,724 sqft (on 0.57 acres)","8 Bevlyn Dr","Asheville",28803,"NC",-82.5246929,35.4919393,"8 bevlyn dr, asheville, nc 28803, usa",2724,3,4,330.03,192.0045607,0.0316092046485093
"29",29,599000,"2bd3ba2,296 sqft (on 0.35 acres)","22 Carjen Ave","Asheville",28804,"NC",-82.5722369,35.6360994,"22 carjen ave, asheville, nc 28804, usa",2296,3,2,260.89,218.5337896,0.0336078874257427
"30",30,724475,"4bd3ba1,994 sqft (on 0.32 acres)","134 Lookout Dr","Asheville",28804,"NC",-82.559773,35.6225864,"134 lookout dr, asheville, nc 28804, usa",1994,3,4,363.33,215.8940767,0.0561502139005437
"31",31,725000,"2bd5ba2,646 sqft (on 0.38 acres)","119 Bull Mountain Rd","Asheville",28805,"NC",-82.4915717,35.5918841,"119 bull mountain rd, asheville, nc 28805, usa",2646,5,2,274,204.5003123,0.0238348639870975
"32",32,2650000,"4bd3ba3,892 sqft (on 0.29 acres)","158 Kimberly Ave","Asheville",28804,"NC",-82.5500692,35.6170236,"158 kimberly ave, asheville, nc 28804, usa",3892,3,4,680.88,195.8195584,0.01333578696037
"33",33,1200000,"4bd2ba3,228 sqft (on 1.19 acres)","13 Kent Pl","Asheville",28804,"NC",-82.5331606,35.6469997,"kent pl, asheville, nc 28804, usa",3228,2,4,371.75,208.2422492,0.0256099403161071
"34",34,340000,"3bd2ba1,452 sqft","29 Kirby Rd","Asheville",28806,"NC",-82.6360841,35.5508184,"29 kirby rd, asheville, nc 28806, usa",1452,2,3,234.16,201.7877286,0.0658777584580771
"35",35,315000,"2bd2ba1,020 sqft","17 Larchmont Rd","Asheville",28804,"NC",-82.5552081,35.6241461,"17 larchmont rd, asheville, nc 28804, usa",1020,2,2,308.82,227.708228,0.0846014379521917
"36",36,595000,"4bd3ba2,068 sqft","82 Madison Ave","Asheville",28801,"NC",-82.54876,35.605963,"82 madison ave, asheville, nc 28801, usa",2068,3,4,287.72,190.8252506,0.0580447019922335
"37",37,349900,"3bd2ba1,566 sqft (on 0.29 acres)","138 Hemphill Rd","Asheville",28803,"NC",-82.484848,35.5642236,"138 hemphill rd, asheville, nc 28803, usa",1566,2,3,223.44,193.637703,3.75463518515802
"38",38,745000,"3bd3ba1,896 sqft","23 Mauricet Ln","Asheville",28806,"NC",-82.5932109,35.5842065,"23 mauricet ln, asheville, nc 28806, usa",1896,3,3,392.93,192.2728449,0.0327952952270369
"39",39,350000,"3bd2ba1,412 sqft (on 1.20 acres)","37 Church Rd","Asheville",28804,"NC",-82.592639,35.6378669,"37 church rd, woodfin, nc 28804, usa",1412,2,3,247.88,194.3174868,0.0497082637692909
"40",40,285000,"2bd1ba945 sqft","55 Deaver Park Cir","Asheville",28806,"NC",-82.6244761,35.5793156,"55 deaver park cir, asheville, nc 28806, usa",945,1,2,301.59,192.5009173,0.0519597687892021
"41",41,925000,"4bd3ba2,509 sqft (on 0.36 acres)","42 Rosewood Ave","Asheville",28801,"NC",-82.5700823,35.6027028,"42 rosewood ave, asheville, nc 28801, usa",2509,3,4,368.67,224.369164,0.047104626341499
"42",42,650000,"3bd3ba2,466 sqft","10 Holland Mountain Vw","Asheville",28804,"NC",-82.5882751,35.6926283,"10 holland mountain vw, asheville, nc 28804, usa",2466,3,3,263.58,171.9586198,NA
"43",43,649000,"2bd3ba1,430 sqft (on 0.28 acres)","109 Thurland Ave","Asheville",28803,"NC",-82.5413349,35.5814223,"109 thurland ave, asheville, nc 28803, usa",1430,3,2,453.85,209.2885506,0.0331197369663713
"44",44,599900,"3bd3ba1,538 sqft","35 Rangeley Dr","Asheville",28803,"NC",-82.5158649,35.5373596,"35 rangeley dr, asheville, nc 28803, usa",1538,3,3,390.05,189.3493176,0.0561040860228905
"45",45,2490000,"4bd5ba3,782 sqft (on 0.67 acres)","325 Flowering Vine Ct","Asheville",28803,"NC",-82.5530804,35.5020185,"flowering vine ct, north carolina 28803, usa",3782,5,4,658.38,194.0276061,NA
"46",46,430000,"7bd3,108 sqft (on 1.58 acres)","18 Willow Ct","Asheville",28805,"NC",-82.478271,35.604754,"18 willow ct, asheville, nc 28805, usa",3108,NA,7,138.35,212.2216584,0.0870890235648956
"47",47,249000,"3bd2ba1,523 sqft (on 0.48 acres)","25 Udell Ct","Asheville",28806,"NC",-82.6428369,35.5775058,"25 udell ct, asheville, nc 28806, usa",1523,2,3,163.49,187.5129433,0.0751378600397466
"48",48,795000,"3bd4ba2,883 sqft (on 0.69 acres)","10 Shackleford Dr","Asheville",28806,"NC",-82.6056036,35.5052697,"10 shackleford dr, asheville, nc 28806, usa",2883,4,3,275.75,185.1197165,0.0264633724770118
"49",49,699000,"3bd1ba1,260 sqft (on 1.16 acres)","71 Lanvale Ave","Asheville city",28806,"NC",-82.5984482,35.5781844,"71 lanvale ave, asheville, nc 28806, usa",1260,1,3,554.76,210.9336394,0.0382524828485581
"50",50,699000,"4bd3ba2,958 sqft (on 0.60 acres)","124 Overlook Rd","Asheville",28803,"NC",-82.5315835,35.4957701,"124 overlook rd, asheville, nc 28803, usa",2958,3,4,236.31,185.673533,0.0252346003384313
"51",51,1200000,"4bd2ba2,264 sqft (on 9.32 acres)","320 Upper Grassy Branch Rd","Asheville",28805,"NC",-82.4860841,35.6057306,"320 upper grassy branch rd, asheville, nc 28805, usa",2264,2,4,530.04,235.6701624,0.033556064409018
"52",52,649900,"4bd2ba2,191 sqft (on 1.49 acres)","320 Hi Alta Ave","Asheville",28806,"NC",-82.6280642,35.5809381,"320 hi alta ave, asheville, nc 28806, usa",2191,2,4,296.62,186.3206561,0.0472041519150506
"53",53,899000,"3bd3ba2,813 sqft (on 0.26 acres)","27 Acadia Dr","Asheville",28806,"NC",-82.6130099,35.6098797,"27 acadia dr, asheville, nc 28806, usa",2813,3,3,319.59,194.5524536,0.0245393310145558
"54",54,379900,"3bd3ba1,404 sqft","9 Arbutus Rd","Asheville",28805,"NC",-82.4935115,35.5854158,"9 arbutus rd, asheville, nc 28805, usa",1404,3,3,270.58,205.5777949,0.055216225984886
"55",55,625000,"3bd2ba1,989 sqft","70 Longview Rd","Asheville",28806,"NC",-82.5718144,35.5760358,"70 longview rd, asheville, nc 28806, usa",1989,2,3,314.23,144.3440079,0.0300928387633325
"56",56,650000,"4bd3ba2,754 sqft (on 0.82 acres)","149 Pinners Cove Rd","Asheville",28803,"NC",-82.4955061,35.4991006,"149 pinners cove rd, asheville, nc 28803, usa",2754,3,4,236.02,196.6251724,0.0413336362483231
"57",57,750000,"4bd3ba2,976 sqft (on 0.74 acres)","305 E Sondley Dr","Asheville",28805,"NC",-82.4980539,35.6228322,"305 e sondley dr, asheville, nc 28805, usa",2976,3,4,252.02,182.7535101,0.0277785335369809
"58",58,345000,"3bd2ba1,271 sqft","3 Pelzer St","Asheville",28804,"NC",-82.5769683,35.6314643,"3 pelzer st, woodfin, nc 28804, usa",1271,2,3,271.44,199.5137854,0.0555348878928899
"59",59,1525000,"4bd4ba4,038 sqft (on 3.37 acres)","7 Snowbird Dr","Asheville",28804,"NC",-82.5051153,35.6288227,"7 snowbird dr, asheville, nc 28804, usa",4038,4,4,377.66,185.8806941,0.0243777959478917
"60",60,310000,"2bd2ba1,045 sqft","9 Rocking Porch Rd","Asheville",28805,"NC",-82.517331,35.5988309,"9 rocking porch rd, asheville, nc 28805, usa",1045,2,2,296.65,189.5785633,0.0442757676964897
"61",61,899000,"4bd3ba2,724 sqft (on 0.57 acres)","8 Bevlyn Dr","Asheville",28803,"NC",-82.5246929,35.4919393,"8 bevlyn dr, asheville, nc 28803, usa",2724,3,4,330.03,170.0547483,0.027995664901561
"62",62,599000,"2bd3ba2,296 sqft (on 0.35 acres)","22 Carjen Ave","Asheville",28804,"NC",-82.5722369,35.6360994,"22 carjen ave, asheville, nc 28804, usa",2296,3,2,260.89,205.4082277,0.0315893327296421
"63",63,724475,"4bd3ba1,994 sqft (on 0.32 acres)","134 Lookout Dr","Asheville",28804,"NC",-82.559773,35.6225864,"134 lookout dr, asheville, nc 28804, usa",1994,3,4,363.33,200.88873,0.0522475898032258
"64",64,725000,"2bd5ba2,646 sqft (on 0.38 acres)","119 Bull Mountain Rd","Asheville",28805,"NC",-82.4915717,35.5918841,"119 bull mountain rd, asheville, nc 28805, usa",2646,5,2,274,173.3483595,0.0202040501722517
"65",65,2650000,"4bd3ba3,892 sqft (on 0.29 acres)","158 Kimberly Ave","Asheville",28804,"NC",-82.5500692,35.6170236,"158 kimberly ave, asheville, nc 28804, usa",3892,3,4,680.88,190.0513052,0.0129429549246019
"66",66,1200000,"4bd2ba3,228 sqft (on 1.19 acres)","13 Kent Pl","Asheville",28804,"NC",-82.5331606,35.6469997,"kent pl, asheville, nc 28804, usa",3228,2,4,371.75,190.8336671,0.0234690070955822
"67",67,299999,"4bd2ba1,488 sqft (on 0.28 acres)","14 Fortunate Dr","Asheville",28806,"NC",-82.6614437,35.6226561,"14 fortunate dr, asheville, nc 28806, usa",1488,2,4,201.61,205.600032,0.0689143145060627
"68",68,3395000,"4bd4ba4,508 sqft (on 7.67 acres)","29 Elk Ridge Dr","Asheville",28804,"NC",-82.5375436,35.6599417,"29 elk ridge dr, asheville, nc 28804, usa",4508,4,4,753.11,223.2141699,NA
"69",69,780000,"2bd2ba1,736 sqft","13 Park Ave N","Asheville",28801,"NC",-82.5663221,35.5901898,"13 park ave n, asheville, nc 28801, usa",1736,2,2,449.31,216.3401421,0.0258679787775781
"70",70,1450000,"4bd5ba3,886 sqft (on 1.34 acres)","210 Bridgeman Dr","Asheville",28803,"NC",-82.4926498,35.5044875,"210 bridgeman dr, asheville, nc 28803, usa",3886,5,4,373.13,225.3801003,NA
"71",71,425000,"1bd1ba757 sqft","155 S Lexington Ave","Asheville",28801,"NC",-82.552109,35.5904484,"155 s lexington ave, asheville, nc 28801, usa",757,1,1,561.43,205.526519,0.0310984831670431
"72",72,384900,"2bd2ba1,226 sqft","75 Belmont Ave","Asheville",28806,"NC",-82.6053503,35.5798003,"75 belmont ave, asheville, nc 28806, usa",1226,2,2,313.95,207.3139196,0.042150908716616
"73",73,695000,"1bd2ba1,068 sqft","60 N Market St","Asheville",28801,"NC",-82.5510846,35.5979819,"60 n market st, asheville, nc 28801, usa",1068,2,1,650.75,188.0864074,0.0212745844274328
"74",74,725000,"2bd3ba2,098 sqft","902 Timber Ln","Asheville",28804,"NC",-82.54257,35.636594,"902 timber ln, asheville, nc 28804, usa",2098,3,2,345.57,220.1393273,0.0245948765629647
"75",75,699000,"3bd3ba2,220 sqft","22 Reagan Run Ct","Arden",28704,"NC",-82.5204599,35.4783427,"22 reagan run ct, arden, nc 28704, usa",2220,3,3,314.86,217.1320001,0.0288111487953778
"76",76,425000,"5bd3ba2,185 sqft (on 0.26 acres)","10 Springdale Rd","Asheville",28805,"NC",-82.5345425,35.5880957,"10 springdale rd, asheville, nc 28805, usa",2185,3,5,194.51,183.3653137,0.110019188208685
"77",77,949900,"4bd6ba5,500 sqft (on 2.05 acres)","136 Windover Dr","Asheville",28803,"NC",-82.4902555,35.5115092,"136 windover dr, asheville, nc 28803, usa",5500,6,4,172.71,185.8133769,0.0195613619196068
"78",78,269000,"2bd2ba1,236 sqft","54 Pebble Creek Dr","Asheville",28803,"NC",-82.5264668,35.5017275,"54 pebble creek dr, asheville, nc 28803, usa",1236,2,2,217.64,209.5935956,NA
"79",79,650000,"4bd4ba2,809 sqft","111 Trumpet Ln","Asheville",28803,"NC",-82.5093027,35.4926004,"111 trumpet ln, asheville, nc 28803, usa",2809,4,4,231.4,235.4749324,0.0564927076493145
"80",80,450000,"3bd2ba1,307 sqft (on 0.33 acres)","44 Overlook Rd","Asheville city",28803,"NC",-82.5269449,35.5035082,"44 overlook rd, asheville, nc 28803, usa",1307,2,3,344.3,201.3800375,NA
"81",81,675000,"3bd3ba1,977 sqft","975 New Haw Creek Rd","Asheville",28805,"NC",-82.5017226,35.6158928,"975 new haw creek rd, asheville, nc 28805, usa",1977,3,3,341.43,160.0647786,0.0290962197490403
"82",82,650000,"3bd2ba1,412 sqft","91 Virginia Ave","Asheville",28806,"NC",-82.590485,35.5745508,"91 virginia ave, asheville, nc 28806, usa",1412,2,3,460.34,215.9692158,0.0427553367982618
"83",83,719000,"3bd3ba2,700 sqft","321 Hazel Mill Rd","Asheville",28806,"NC",-82.5893416,35.5913777,"321 hazel mill rd, asheville, nc 28806, usa",2700,3,3,266.3,208.1956737,0.0302462163097665
"84",84,367000,"3bd2ba1,782 sqft (on 0.32 acres)","2 Valleywood Ct","Asheville",28803,"NC",-82.5145882,35.4908016,"2 valleywood ct, asheville, nc 28803, usa",1782,2,3,205.95,215.6063589,0.064173017768436
"85",85,650000,"2bd1ba1,412 sqft","91 Virginia Ave","Asheville",28806,"NC",-82.590485,35.5745508,"91 virginia ave, asheville, nc 28806, usa",1412,1,2,460.34,212.0842484,0.0279908209283335
"86",86,379000,"2bd1ba844 sqft","71 5th Ave","Asheville",28806,"NC",-82.5798409,35.5721101,"71 5th ave, asheville, nc 28806, usa",844,1,2,449.05,148.3825005,0.0315639849204992
"87",87,525000,"1bd1ba625 sqft (on 1.73 acres)","362 New Haw Creek Rd","Asheville",28805,"NC",-82.5122429,35.5878066,"362 new haw creek rd, asheville, nc 28805, usa",625,1,1,840,213.2238544,0.016059479194222
"88",88,419900,"3bd2ba1,100 sqft (on 0.92 acres)","320 Olivette Rd","Asheville",28804,"NC",-82.6110506,35.6333072,"320 olivette rd, asheville, nc 28804, usa",1100,2,3,381.73,194.5442593,0.042800574564693
"89",89,409000,"3bd3ba1,755 sqft","861 W Pointe Dr","Asheville",28806,"NC",-82.6246086,35.5423965,"861 w pointe dr, asheville, nc 28806, usa",1755,3,3,233.05,163.970042,NA
"90",90,825000,"3bd3ba1,624 sqft (on 0.25 acres)","21 Pinewood Ave","Asheville",28804,"NC",-82.5698809,35.6396522,"21 pinewood ave, asheville, nc 28804, usa",1624,3,3,508,148.3729697,0.0170058249875688
"91",91,2250000,"3bd4ba4,193 sqft (on 0.58 acres)","7 Bee Balm Way","Asheville",28804,"NC",-82.6113683,35.6532108,"7 bee balm wy, asheville, nc 28804, usa",4193,4,3,536.61,229.7244555,0.0206752009905432
"92",92,1099000,"5bd4ba4,226 sqft (on 0.51 acres)","1032 Columbine Rd","Asheville",28803,"NC",-82.5444329,35.4851629,"1032 columbine rd, asheville, nc 28803, usa",4226,4,5,260.06,216.8845841,NA
"93",93,299000,"3bd2ba1,040 sqft (on 0.32 acres)","328 Camelia Ln","Asheville",28806,"NC",-82.6304703,35.6051828,"328 camelia ln, asheville, nc 28806, usa",1040,2,3,287.5,206.4901687,0.075616048640611
"94",94,1110000,"5bd4ba3,141 sqft (on 0.37 acres)","912 Woodvine Rd","Asheville",28803,"NC",-82.5424676,35.4879134,"912 woodvine rd, asheville, nc 28803, usa",3141,4,5,353.39,189.5751169,NA
"95",95,5e+05,"4bd3ba2,346 sqft (on 0.37 acres)","32 Spring Forest Cir","Asheville",28803,"NC",-82.5327248,35.4908204,"32 spring forest cir, asheville, nc 28803, usa",2346,3,4,213.13,206.425911,0.0501614963610232
"96",96,3e+05,"3bd3ba1,346 sqft","118 Rotunda Cir","Asheville",28806,"NC",-82.6352399,35.6102764,"118 rotunda cir, asheville, nc 28806, usa",1346,3,3,222.88,226.0738529,0.090322470076609
"97",97,509900,"2bd2ba1,195 sqft","175 S Lexington Ave","Asheville",28801,"NC",-82.5523147,35.5898552,"175 s lexington ave, asheville, nc 28801, usa",1195,2,2,426.69,179.2804226,0.0457728798712697
"98",98,1437500,"4bd3ba3,478 sqft (on 0.27 acres)","82 Caledonia Rd","Asheville",28803,"NC",-82.5414504,35.5725765,"82 caledonia rd, asheville, nc 28803, usa",3478,3,4,413.31,261.8697649,0.033641535803112
"99",99,899000,"3bd3ba2,266 sqft","44 Westchester Dr","Asheville",28803,"NC",-82.5314449,35.5747939,"44 westchester dr, asheville, nc 28803, usa",2266,3,3,396.73,196.8948104,0.0308822520590501
"100",100,329900,"3bd1ba1,000 sqft (on 0.75 acres)","297 Merrills Cove Rd","Asheville",28803,"NC",-82.47293,35.497298,"297 merrills cove rd, asheville, nc 28803, usa",1000,1,3,329.9,191.9352714,0.0459038887844323
"101",101,799000,"3bd3ba2,621 sqft (on 0.27 acres)","818 Haywood Rd","Asheville",28806,"NC",-82.5959332,35.5787965,"818 haywood rd, asheville, nc 28806, usa",2621,3,3,304.85,238.9693441,0.0382011288010176
"102",102,4e+05,"4bd3ba1,479 sqft (on 0.47 acres)","307 Westforest Ln","Asheville",28806,"NC",-82.5990583,35.5660235,"307 westforest ln, asheville, nc 28806, usa",1479,3,4,270.45,196.9613986,0.0971527019728518
"103",103,1325000,"3bd3ba1,777 sqft","60 N Market St","Asheville",28801,"NC",-82.5510846,35.5979819,"60 n market st, asheville, nc 28801, usa",1777,3,3,745.64,233.6306395,0.0415837501723402
"104",104,525000,"3bd3ba1,748 sqft","931 Tunnel Rd","Asheville",28805,"NC",-82.500917,35.5880205,"931 tunnel rd, asheville, nc 28805, usa",1748,3,3,300.34,217.7557926,0.0419735400322166
"105",105,510000,"2bd1ba1,204 sqft (on 3.39 acres)","48-70 McKinney Rd","Asheville",28806,"NC",-82.6481543,35.5765128,"48 mckinney rd, asheville, nc 28806, usa",1204,1,2,423.59,203.7883648,0.030201968442389
"106",106,2295000,"3bd4ba2,926 sqft (on 4.90 acres)","500 Lynn Cove Rd","Asheville",28804,"NC",-82.4981956,35.6580277,"500 lynn cove rd, asheville, nc 28804, usa",2926,4,3,784.35,191.0028636,NA
"107",107,499000,"3bd2ba1,301 sqft","44 Porter Hill Ln","Asheville",28803,"NC",-82.508281,35.5573171,"porter hl ln, asheville, nc 28803, usa",1301,2,3,383.55,219.8688022,0.0465245493339699
"108",108,449999,"3bd3ba1,892 sqft (on 0.72 acres)","2 Powers Dr","Asheville",28806,"NC",-82.6170671,35.5898913,"2 powers dr, asheville, nc 28806, usa",1892,3,3,237.84,219.7157583,0.0380611632141363
"109",109,319900,"3bd2ba1,372 sqft (on 0.77 acres)","222 Bee Ridge Rd","Asheville",28803,"NC",-82.4875186,35.5407094,"222 bee ridge rd, asheville, nc 28803, usa",1372,2,3,233.16,209.9691787,0.106931787086346
"110",110,750000,"3bd3ba2,663 sqft (on 0.92 acres)","615 Rose Hill Rd","Asheville",28803,"NC",-82.4809657,35.5533939,"615 rose hill rd, asheville, nc 28803, usa",2663,3,3,281.64,228.1277168,0.0331338226245167
"111",111,274900,"3bd2ba1,400 sqft (on 1.40 acres)","103 Old Leicester Rd","Asheville",28804,"NC",-82.6065274,35.6299065,"103 old leicester rd, asheville, nc 28804, usa",1400,2,3,196.36,198.8340917,0.0753479779019371
"112",112,1050000,"5bd3ba3,244 sqft (on 0.43 acres)","414 Lakeshore Dr","Asheville",28804,"NC",-82.5684134,35.630915,"414 lakeshore dr, asheville, nc 28804, usa",3244,3,5,323.67,212.1848346,0.0552985674994524
"113",113,769000,"3bd3ba2,350 sqft","14 Trevors Trl","Asheville",28806,"NC",-82.5995228,35.5401155,"14 trevors trail, asheville, nc 28806, usa",2350,3,3,327.23,179.4887883,0.0389787095525147
"114",114,1e+06,"3bd3ba2,297 sqft (on 1.65 acres)","6 Stegall Ln","Asheville",28805,"NC",-82.5252213,35.6013911,"6 stegall ln, asheville, nc 28805, usa",2297,3,3,435.35,206.6759113,0.0124005546764322
"115",115,789900,"3bd3ba2,606 sqft","101 Courtland Ave","Asheville",28801,"NC",-82.5657728,35.5984849,"101 courtland ave, asheville, nc 28801, usa",2606,3,3,303.11,194.1075327,0.035343869445813
"116",116,420990,"4bd3ba1,995 sqft","753 Fountain Park Blvd","Asheville",28806,"NC",-82.6119468,35.5427601,"fountain pk blvd, asheville, nc 28806, usa",1995,3,4,211.02,195.6418793,NA
"117",117,749900,"3bd3ba2,103 sqft","50 Clinton Ave","Asheville",28806,"NC",-82.6018929,35.579481,"50 clinton ave, asheville, nc 28806, usa",2103,3,3,356.59,234.8179545,0.0370937312349703
"118",118,5e+05,"1bd1ba758 sqft","Address Not Disclosed","Asheville",28801,"NC",-82.5564559,35.5927461,"asheville, nc 28801, usa",758,1,1,659.63,195.1612959,0.0262377154996788
"119",119,789000,"5bd4ba3,075 sqft (on 0.61 acres)","101 Coachmans Trl","Asheville",28803,"NC",-82.4909538,35.5590301,"101 coachmans trail, asheville, nc 28803, usa",3075,4,5,256.59,205.5503533,0.0520092526767528
"120",120,1175000,"5bd4ba4,255 sqft (on 1.01 acres)","22 Barebridge Hills Dr","Asheville",28804,"NC",-82.5850364,35.6562547,"22 barebridge hills dr, asheville, nc 28804, usa",4255,4,5,276.15,225.7191182,0.0342116544328654
"121",121,1200000,"4bd5ba4,559 sqft (on 0.52 acres)","904 Woodvine Rd","Asheville",28803,"NC",-82.5425741,35.489034,"904 woodvine rd, asheville, nc 28803, usa",4559,5,4,263.22,203.4294722,NA
"122",122,1195000,"4bd3ba2,932 sqft (on 21.19 acres)","51 Rice Branch Rd","Asheville city",28804,"NC",-82.5214228,35.6385445,"51 rice branch rd, asheville, nc 28804, usa",2932,3,4,407.57,215.2307833,0.0195005993884108
"123",123,1200000,"3bd4ba3,108 sqft (on 4.13 acres)","24 Ridgeview Way","Asheville",28803,"NC",-82.472563,35.537325,"24 ridgeview way, asheville, nc 28803, usa",3108,4,3,386.1,186.7127474,NA
"124",124,245000,"2bd1ba884 sqft","130 Warren Haynes Dr","Asheville",28806,"NC",-82.6389024,35.5484319,"130 warren haynes dr, asheville, nc 28806, usa",884,1,2,277.15,208.3297669,0.0306117208540537
"125",125,1350000,"5bd4ba3,241 sqft (on 0.32 acres)","123 Edwin Pl","Asheville",28801,"NC",-82.5495044,35.6116278,"123 edwin pl, asheville, nc 28801, usa",3241,4,5,416.54,188.2813415,0.0286808048860491
"126",126,584500,"3bd3ba1,510 sqft","304 Jenna Clare Ln","Asheville",28803,"NC",-82.5437614,35.5671423,"biltmore forest, nc 28803, usa",1510,3,3,387.09,198.8376483,0.0502403423644888
"127",127,584500,"3bd3ba1,510 sqft","300 Jenna Clare Ln","Asheville",28803,"NC",-82.5437614,35.5671423,"biltmore forest, nc 28803, usa",1510,3,3,387.09,217.7618921,0.0550219342725687
"128",128,485000,"2bd1ba1,032 sqft","107 Annandale Ave","Asheville",28801,"NC",-82.5495889,35.6081917,"107 annandale ave, asheville, nc 28801, usa",1032,1,2,469.96,182.9036837,0.0333053441890122
"129",129,459000,"3bd1ba1,080 sqft","17 Mount Clare Ave","Asheville",28801,"NC",-82.5576496,35.6040698,"17 mt clare ave, asheville, nc 28801, usa",1080,1,3,425,167.9106069,0.0534093839609555
"130",130,1250000,"3bd4ba2,287 sqft","405 W Haywood St","Asheville",28801,"NC",-82.5667098,35.590481,"405 w haywood st, asheville, nc 28801, usa",2287,4,3,546.57,218.0907283,0.0244083508313307
"131",131,824900,"3bd4ba2,527 sqft","7 Shaker Ct","Asheville",28805,"NC",-82.4991744,35.595495,"the grove at haw creek, 7 shaker ct, asheville, nc 28805, usa",2527,4,3,326.43,227.3668977,0.0222708756634878
"132",132,550000,"3bd2ba2,124 sqft (on 0.50 acres)","23 Rolling Hill Dr","Asheville",28806,"NC",-82.6259958,35.6004894,"23 rolling hill dr, asheville, nc 28806, usa",2124,2,3,258.95,213.5201864,0.0384696824206847
"133",133,2e+06,"4bd6ba4,877 sqft (on 2.55 acres)","21 Honey Dr","Asheville",28805,"NC",-82.5345949,35.6063391,"21 honey dr, asheville, nc 28805, usa",4877,6,4,410.09,218.5428115,0.0162802253290667
"134",134,315000,"2bd2ba1,211 sqft","305 Piney Mountain Dr","Asheville",28805,"NC",-82.5250311,35.5896727,"305 piney mountain dr, asheville, nc 28805, usa",1211,2,2,260.12,174.8522264,NA
"135",135,235000,"1bd1ba1,023 sqft","9 Kenilworth Knls","Asheville",28805,"NC",-82.5274619,35.588655,"9 kenilworth knolls, asheville, nc 28805, usa",1023,1,1,229.72,219.6788273,0.0552313080020787
"136",136,650000,"3bd3ba2,357 sqft","39 Creekside View Dr","Asheville",28804,"NC",-82.5889289,35.6911236,"39 creekside view dr, asheville, nc 28804, usa",2357,3,3,275.77,238.3442373,NA
"137",137,439000,"3bd1ba1,160 sqft","21 Fulton St","Asheville",28801,"NC",-82.5567728,35.6041749,"21 fulton st, asheville, nc 28801, usa",1160,1,3,378.45,227.9419306,0.0757915208633077
"138",138,450000,"3bd3ba2,179 sqft","539 Crowfields Ln","Asheville",28803,"NC",-82.5289626,35.5045841,"539 crowfields ln, asheville, nc 28803, usa",2179,3,3,206.52,182.2278312,NA
"139",139,750000,"3bd2ba1,823 sqft (on 0.43 acres)","272 Lakewood Dr","Asheville",28803,"NC",-82.5327671,35.5790183,"272 lakewood dr, asheville, nc 28803, usa",1823,2,3,411.41,213.8716983,0.0476399207989416
"140",140,365000,"2bd1ba850 sqft","50 Jarrett St","Asheville",28806,"NC",-82.5921744,35.5792029,"50 jarrett st, asheville, nc 28806, usa",850,1,2,429.41,194.1856585,0.0477307306004326
"141",141,425000,"3bd2ba1,504 sqft (on 1.07 acres)","31 Forest Creek Dr","Asheville",28806,"NC",-82.6188614,35.5926151,"31 frst crk dr, asheville, nc 28806, usa",1504,2,3,282.58,179.1980073,0.0331364472019085
"142",142,1150000,"4bd4ba3,442 sqft (on 0.55 acres)","14 Bent Oak Ln","Asheville",28803,"NC",-82.5348806,35.4957617,"14 bent oak ln, asheville, nc 28803, usa",3442,4,4,334.11,205.3788589,NA
"143",143,1595000,"5bd5ba4,606 sqft (on 0.63 acres)","24 Lakeview Rd","Asheville",28804,"NC",-82.564801,35.632582,"24 lakeview rd, asheville, nc 28804, usa",4606,5,5,346.29,178.9937506,0.0278450309520084
"144",144,550000,"3bd3ba2,576 sqft (on 0.44 acres)","117 Cherry Meadows Way","Asheville",28806,"NC",-82.6116207,35.5521509,"117 cherry meadows way, asheville, nc 28806, usa",2576,3,3,213.51,206.4642119,0.0316433218211358
"145",145,995000,"4bd5ba2,883 sqft","8 Short St","Asheville",28801,"NC",-82.5595194,35.5974612,"8 short st, asheville, nc 28801, usa",2883,5,4,345.13,212.2233411,0.0453788794458274
"146",146,299900,"3bd1ba1,372 sqft (on 0.34 acres)","740 Fairview Rd","Asheville",28803,"NC",-82.5138271,35.5649209,"740 fairview rd, asheville, nc 28803, usa",1372,1,3,218.59,174.3494568,0.0787740960276069
"147",147,395000,"3bd2ba1,641 sqft (on 0.90 acres)","40 Lawterdale Rd","Asheville",28804,"NC",-82.5101059,35.642975,"40 lawterdale rd, asheville, nc 28804, usa",1641,2,3,240.71,181.9222719,0.0536720048187501
"148",148,6e+05,"4bd3ba1,876 sqft","26 Reagan Run Ct","Arden",28704,"NC",-82.520221,35.478175,"26 reagan run ct, arden, nc 28704, usa",1876,3,4,319.83,192.8358134,0.0397456037666223
"149",149,750000,"4bd3ba2,485 sqft","34 Myrtle Lee Cv","Arden",28704,"NC",-82.5200846,35.4786332,"34 myrtle lee cv, arden, nc 28704, usa",2485,3,4,301.81,205.9324195,0.0339559678410092
"150",150,899000,"4bd5ba4,000 sqft (on 4.38 acres)","41 Beck Dr","Asheville",28806,"NC",-82.6433223,35.6263422,"41 beck dr, asheville, nc 28806, usa",4000,5,4,224.75,204.9403068,0.0261209605037992
"151",151,4e+05,"3bd2ba1,275 sqft (on 0.70 acres)","42 Carlton Pl","Asheville",28806,"NC",-82.6015498,35.58862,"42 carlton pl, asheville, nc 28806, usa",1275,2,3,313.73,204.4233455,0.0639255388639592
"152",152,365000,"3bd2ba1,350 sqft","10 Miami Cir","Arden",28704,"NC",-82.5329493,35.4839894,"10 miami cir, arden, nc 28704, usa",1350,2,3,270.37,196.4890537,NA
"153",153,6e+05,"3bd3ba3,444 sqft (on 0.50 acres)","27 Rolling Hill Dr","Asheville",28806,"NC",-82.6264074,35.6004827,"27 rolling hill dr, asheville, nc 28806, usa",3444,3,3,174.22,219.7003019,0.0362921068875863
"154",154,6e+05,"3bd3ba2,500 sqft (on 0.50 acres)","27 Rolling Hill Dr","Asheville",28806,"NC",-82.6264074,35.6004827,"27 rolling hill dr, asheville, nc 28806, usa",2500,3,3,240,244.7037415,0.0404224039016035
"155",155,425000,"4bd4ba2,889 sqft","503 Woodfield Dr","Asheville",28803,"NC",-82.4799504,35.5551584,"503 woodfield dr, asheville, nc 28803, usa",2889,4,4,147.11,217.9546971,0.0695610625516442
"156",156,699000,"2bd3ba3,142 sqft (on 1.49 acres)","22 Indian Knob Rd","Asheville",28803,"NC",-82.4772934,35.5266526,"22 indian knob rd, biltmore forest, nc 28803, usa",3142,3,2,222.47,189.14024,0.0255085272903054
"157",157,365000,"1bd1ba760 sqft","225 Bowling Park Rd","Asheville",28803,"NC",-82.5433244,35.5725828,"225 bowling park rd, asheville, nc 28803, usa",760,1,1,480.26,197.7702936,0.0241348616592903
"158",158,1300000,"1bd2ba1,502 sqft","7 Patton Ave","Asheville",28801,"NC",-82.5521879,35.5952443,"7 patton ave, asheville, nc 28806, usa",1502,2,1,865.51,175.330804,0.00989629545080446
"159",159,550000,"5bd4ba3,088 sqft (on 0.60 acres)","15 Gardenwood Dr","Asheville",28803,"NC",-82.5135258,35.5117134,"15 gardenwood dr, asheville, nc 28803, usa",3088,4,5,178.11,182.2006568,NA
"160",160,545000,"4bd2ba2,053 sqft (on 0.29 acres)","488 Kenilworth Rd","Asheville",28805,"NC",-82.5317103,35.5880475,"488 kenilworth rd, asheville, nc 28805, usa",2053,2,4,265.47,185.2744495,0.0753886510526598
"161",161,305000,"2bd1ba792 sqft (on 0.38 acres)","124 Concord Rd","Asheville",28803,"NC",-82.4868132,35.4902224,"124 concord rd, asheville, nc 28803, usa",792,1,2,385.1,195.3873467,0.065182500088361
"162",162,275000,"3bd1ba928 sqft (on 0.31 acres)","2 Wisteria Ct","Asheville",28806,"NC",-82.6315283,35.6014904,"2 wisteria ct, asheville, nc 28806, usa",928,1,3,296.34,194.7227469,0.075545682135976
"163",163,489900,"3bd3ba1,657 sqft","15 Cane St","Asheville",28806,"NC",-82.6207973,35.5711711,"15 cane st, asheville, nc 28806, usa",1657,3,3,295.65,207.7081713,0.048545796317923
"164",164,649000,"2bd3ba1,430 sqft (on 0.28 acres)","109 Thurland Ave","Asheville",28803,"NC",-82.5413349,35.5814223,"109 thurland ave, asheville, nc 28803, usa",1430,3,2,453.85,171.6902883,0.027169843596169
"165",165,209900,"3bd2ba1,216 sqft (on 0.49 acres)","54 Hopedale Cir","Asheville",28806,"NC",-82.5932303,35.5976279,"54 hopedale cir, asheville, nc 28806, usa",1216,2,3,172.62,209.5156526,0.0998641249916656
"166",166,1740000,"5bd4ba5,833 sqft (on 2.36 acres)","514 Sondley Dr S","Asheville",28805,"NC",-82.4966564,35.620415,"514 sondley dr s, asheville, nc 28805, usa",5833,4,5,298.3,212.8769364,0.0198807483671223
"167",167,799000,"2bd2ba1,347 sqft","61 Church St","Asheville",28801,"NC",-82.553246,35.592609,"61 church st, asheville, nc 28801, usa",1347,2,2,593.17,211.0815206,0.0367049719183015
"168",168,180000,"Studio","5 Owenby Rd","Candler",28715,"NC",-82.6534603,35.5509894,"5 owenby rd, candler, nc 28715, usa",NA,NA,1,NA,192.0686792,0.0308681805815084
"169",169,359000,"3bd1ba1,225 sqft","277 Pisgah View Rd","Asheville",28806,"NC",-82.6422777,35.5725511,"277 pisgah view rd, asheville, nc 28806, usa",1225,1,3,293.06,163.0388112,0.0393192829270577
"170",170,465000,"5bd3ba2,734 sqft (on 0.42 acres)","664 New Haw Creek Rd","Asheville",28805,"NC",-82.5032556,35.5987715,"664 new haw creek rd, asheville, nc 28805, usa",2734,3,5,170.08,149.7802521,0.0539083643172376
"171",171,575000,"4bd3ba1,998 sqft (on 0.37 acres)","21 Moss Pink Pl","Asheville",28806,"NC",-82.6508771,35.6120546,"21 moss pink pl, asheville, nc 28806, usa",1998,3,4,287.79,201.5287654,0.0603044163155066
"172",172,1229000,"1bd2ba1,746 sqft","7 Patton Ave","Asheville",28801,"NC",-82.5521879,35.5952443,"7 patton ave, asheville, nc 28806, usa",1746,2,1,703.89,194.8044713,0.0116306722748118
"173",173,455000,"3bd3ba1,354 sqft","74 Shiloh Rd","Asheville",28803,"NC",-82.5315412,35.5485058,"74 shiloh rd, asheville, nc 28803, usa",1354,3,3,336.04,188.1576636,0.0404745743407222
"174",174,470000,"3bd2ba1,161 sqft","20 Broadview Ave","Asheville",28803,"NC",-82.5082456,35.560493,"20 broadview ave, asheville, nc 28803, usa",1161,2,3,404.82,194.7048533,0.0415819141536419
"175",175,595000,"3bd3ba1,607 sqft (on 0.28 acres)","18 Sunnyside Ln","Asheville",28804,"NC",-82.5182458,35.6472653,"18 sunnyside ln, asheville, nc 28804, usa",1607,3,3,370.26,198.0969581,0.0474766827351561
"176",176,439900,"2bd1ba1,288 sqft (on 3.99 acres)","223 E Oakview Rd","Asheville",28806,"NC",-82.6055086,35.5536544,"223 e oakview rd, asheville, nc 28806, usa",1288,1,2,341.54,213.2864286,0.056902778464278
"177",177,650000,"4bd4ba3,376 sqft","109 Trumpet Ln","Asheville",28803,"NC",-82.5091758,35.4924649,"109 trumpet ln, asheville, nc 28803, usa",3376,4,4,192.54,202.0417197,0.0484717574359563
"178",178,389000,"3bd2ba1,188 sqft (on 1.10 acres)","18 Westview Ln","Asheville",28803,"NC",-82.5126009,35.5492005,"18 westview ln, asheville, nc 28803, usa",1188,2,3,327.44,178.3321633,0.0414211869098563
"179",179,435000,"3bd2ba1,815 sqft (on 0.49 acres)","9 Kildare Pl","Asheville",28806,"NC",-82.6274311,35.6248387,"9 kildare pl, asheville, nc 28806, usa",1815,2,3,239.67,218.4050262,0.039762984032112
"180",180,1850000,"4bd4ba3,781 sqft (on 12.57 acres)","134 Stonecrest Dr","Asheville",28803,"NC",-82.469504,35.5372842,"134 stonecrest dr, asheville, nc 28803, usa",3781,4,4,489.29,203.577094,NA
"181",181,750000,"4bd4ba3,108 sqft","121 Trumpet Ln","Asheville",28803,"NC",-82.5100004,35.4933883,"121 trumpet ln, asheville, nc 28803, usa",3108,4,4,241.31,219.3965283,0.0468709920700613
"182",182,1150000,"2bd1ba1,121 sqft (on 0.32 acres)","21 Pearl St","Asheville",28801,"NC",-82.5609983,35.5923257,"21 pearl st, asheville, nc 28801, usa",1121,1,2,1025.87,184.503939,0.0175048780631363
"183",183,449000,"4bd3ba1,927 sqft","17 Ashwood Dr","Asheville",28803,"NC",-82.5124317,35.5483397,"17 ashwood dr, asheville, nc 28803, usa",1927,3,4,233,218.2999322,0.0584598334158316
"184",184,430000,"4bd3ba2,531 sqft","123 Willow Lake Dr","Asheville",28805,"NC",-82.46656,35.5854969,"123 willow lake dr, asheville, nc 28805, usa",2531,3,4,169.89,206.3849987,0.0730146928432053
"185",185,409000,"3bd2ba1,322 sqft (on 0.85 acres)","8 Split Rail Dr","Asheville",28806,"NC",-82.6159271,35.5692059,"asheville, nc 28806, usa",1322,2,3,309.38,192.1688569,0.0446357980465733
"186",186,285000,"2bd1ba868 sqft (on 0.54 acres)","54 Wellington Dr","Asheville",28804,"NC",-82.5779822,35.6553951,"54 wellington dr, asheville, nc 28804, usa",868,1,2,328.34,187.6545003,0.0366590809069681
"187",187,275000,"4bd1,468 sqft (on 0.33 acres)","18/20 McPherson St","Asheville",28804,"NC",-82.5798831,35.6334281,"20 mcpherson st #18, woodfin, nc 28804, usa",1468,NA,4,187.33,197.2336094,0.108853264161086
"188",188,775000,"3bd4ba1,843 sqft","6 Bauhaus Ct","Asheville",28801,"NC",-82.5505328,35.5880134,"6 bauhaus ct., asheville, nc 28801, usa",1843,4,3,420.51,193.5224791,0.0535646143253277
"189",189,649000,"4bd3ba2,519 sqft (on 0.43 acres)","7 Ballantree Dr","Asheville",28803,"NC",-82.5169982,35.5122641,"7 ballantree dr, asheville, nc 28803, usa",2519,3,4,257.64,150.1953985,NA
"190",190,6e+05,"3bd3ba2,942 sqft (on 0.52 acres)","10 S Oak Forest Dr","Asheville",28803,"NC",-82.5257498,35.4898775,"10 s oak forest dr, asheville, nc 28803, usa",2942,3,3,203.94,213.3054525,0.0323957656031935
"191",191,715000,"3bd2ba1,946 sqft (on 0.92 acres)","26 Utopia Rd","Asheville",28805,"NC",-82.5228538,35.6135648,"26 utopia rd, asheville, nc 28805, usa",1946,2,3,367.42,167.1215594,0.0330698865094677
"192",192,314000,"2bd2ba1,232 sqft (on 0.80 acres)","272 Parker Rd","Asheville",28805,"NC",-82.4800773,35.640482,"272 parker rd, asheville, nc 28805, usa",1232,2,2,254.87,197.5578084,0.0491535152332866
"193",193,380000,"1bd1ba762 sqft","324 Bowling Park Rd","Asheville",28803,"NC",-82.5432367,35.5728265,"bowling park rd, asheville, nc 28803, usa",762,1,1,498.69,216.7296965,0.0254045464752218
"194",194,529000,"3bd3ba1,770 sqft","95 Baker Ave","Asheville",28806,"NC",-82.5841036,35.5809665,"95 baker ave, asheville, nc 28806, usa",1770,3,3,298.87,205.0390015,0.0389027775053624
"195",195,489500,"3bd2ba1,832 sqft (on 0.25 acres)","20 Park Ave","Asheville",28803,"NC",-82.5158566,35.5108321,"20 park ave, asheville, nc 28803, usa",1832,2,3,267.19,191.7496396,NA
"196",196,775000,"3bd3ba2,223 sqft (on 0.62 acres)","223 Robinhood Rd","Asheville",28804,"NC",-82.5498425,35.6458845,"223 robinhood rd, asheville, nc 28804, usa",2223,3,3,348.63,175.9328064,0.0394997526610849
"197",197,357000,"3bd2ba2,000 sqft (on 2.59 acres)","48 Country Gardens Ln","Asheville",28806,"NC",-82.6233152,35.539257,"48 country gardens ln, asheville, nc 28806, usa",2000,2,3,178.5,180.4073371,0.0293459713996683
"198",198,1049000,"8bd4ba5,384 sqft (on 0.68 acres)","349 Country Club Rd","Asheville",28804,"NC",-82.5462502,35.6282486,"349 country club rd, asheville, nc 28804, usa",5384,4,8,194.84,205.0798568,0.125745818773569
"199",199,275000,"2bd1ba1,227 sqft","17 Wentworth Ave","Asheville",28803,"NC",-82.5083618,35.5516897,"17 wentworth ave, asheville, nc 28803, usa",1227,1,2,224.12,156.2341314,0.0339851199560346
"200",200,375000,"2bd1ba1,006 sqft","120 Bartlett St","Asheville",28801,"NC",-82.5617388,35.5822589,"120 bartlett st, asheville, nc 28801, usa",1006,1,2,372.76,170.4713145,0.0447805758160752
"201",201,349000,"3bd2ba1,203 sqft","35 Le An Hurst Rd","Asheville",28803,"NC",-82.5255684,35.5332119,"35 le-an-hurst rd, asheville, nc 28803, usa",1203,2,3,290.11,233.9590853,NA
"202",202,355000,"2bd2ba1,466 sqft (on 0.37 acres)","81 Davidson Rd","Asheville",28803,"NC",-82.5072307,35.5498018,"81 davidson rd, asheville, nc 28803, usa",1466,2,2,242.16,219.6741353,0.0367869708590645
"203",203,1695000,"4bd5ba3,868 sqft (on 0.56 acres)","14 Twinflower Trl","Asheville",28804,"NC",-82.5246161,35.6339601,"14 twinflower trail, asheville, nc 28804, usa",3868,5,4,438.21,200.1774782,0.0165338330040743
"204",204,749900,"4bd4ba2,978 sqft","6 Allen Ave","Asheville",28803,"NC",-82.5265117,35.4865943,"6 allen ave, asheville, nc 28803, usa",2978,4,4,251.81,214.761705,NA
"205",205,475000,"2bd2ba1,112 sqft","125 S Lexington Ave","Asheville",28801,"NC",-82.5523092,35.5910462,"125 s lexington ave, asheville, nc 28801, usa",1112,2,2,427.16,196.9094892,0.0540270287485051
"206",206,569000,"4bd3ba2,998 sqft (on 0.65 acres)","25 Selwyn Rd","Asheville",28806,"NC",-82.6274522,35.5543937,"25 selwyn rd, asheville, nc 28806, usa",2998,3,4,189.79,237.5418847,0.0500093467836555
"207",207,7490000,"6bd7ba9,570 sqft (on 1.64 acres)","23 Eastwood Rd","Asheville",28803,"NC",-82.5356203,35.5296024,"23 eastwood rd, biltmore forest, nc 28803, usa",9570,7,6,782.65,191.902105,NA
"208",208,389000,"3bd1ba1,507 sqft","65 Liberty St","Asheville",28803,"NC",-82.5134888,35.5622644,"65 liberty st, asheville, nc 28803, usa",1507,1,3,258.13,181.6176416,0.0500382281270267
"209",209,1099000,"5bd4ba3,090 sqft (on 0.66 acres)","39 Village Pointe Ln","Asheville",28803,"NC",-82.4658745,35.5462258,"39 village pointe ln, asheville, nc 28803, usa",3090,4,5,355.66,206.0112708,0.0317347299887408
"210",210,473185,"3bd3ba1,528 sqft","56 Mayday St","Asheville",28806,"NC",-82.6159271,35.5692059,"asheville, nc 28806, usa",1528,3,3,309.68,204.6446597,0.0410859234145345
"211",211,795000,"4bd5ba3,436 sqft (on 0.74 acres)","102 Galloway Dr","Asheville",28803,"NC",-82.5289626,35.4973945,"102 galloway dr, asheville, nc 28803, usa",3436,5,4,231.37,177.9674754,NA
"212",212,359999,"3bd2ba1,616 sqft (on 0.35 acres)","170 Birch Ln","Arden",28704,"NC",-82.5183723,35.4786759,"170 birch ln, arden, nc 28704, usa",1616,2,3,222.77,159.3450441,0.0475085617843641
"213",213,2975000,"5bd8ba6,903 sqft (on 2.41 acres)","18 Cedar Hill Dr","Asheville",28803,"NC",-82.5479618,35.5188832,"18 cedar hill dr, biltmore forest, nc 28803, usa",6903,8,5,430.97,200.0959871,NA
"214",214,399900,"3bd1ba998 sqft","19 Erskine Ave","Asheville",28801,"NC",-82.5562658,35.5751606,"19 erskine ave, asheville, nc 28801, usa",998,1,3,400.7,191.5392743,0.0634632504228265
"215",215,980000,"4bd4ba2,873 sqft","7 Ravenna St","Asheville",28803,"NC",-82.5369095,35.575535,"7 ravenna st, asheville, nc 28803, usa",2873,4,4,341.11,183.6909932,0.0302747986808355
"216",216,725000,"3bd2ba1,732 sqft","9 Harvard Pl","Asheville",28806,"NC",-82.6067015,35.5791607,"9 harvard pl, asheville, nc 28806, usa",1732,2,3,418.59,205.4125616,0.031211118678643
"217",217,599900,"3bd3ba2,204 sqft (on 1.03 acres)","120 Mill Rd","Asheville",28805,"NC",-82.4784945,35.6372516,"120 mill rd, asheville, nc 28805, usa",2204,3,3,272.19,208.702066,0.0458786213505524
"218",218,349900,"3bd2ba1,348 sqft","6 Allison Ct","Asheville",28805,"NC",-82.4780467,35.6110486,"6 allison ct, asheville, nc 28805, usa",1348,2,3,259.57,201.5080548,0.0563999871311706
"219",219,355000,"3bd2ba1,493 sqft (on 0.32 acres)","127 Wicklow Dr","Asheville",28806,"NC",-82.6297645,35.6221757,"127 wicklow dr, asheville, nc 28806, usa",1493,2,3,237.78,183.9485997,0.0417616371444668
"220",220,325000,"Studio1ba537 sqft","218 Bowling Park Rd","Asheville",28803,"NC",-82.5435,35.57238,"218 bowling park rd, asheville, nc 28803, usa",537,1,1,605.21,200.3527294,0.0273579687704698
"221",221,1590000,"3bd4ba2,902 sqft (on 0.54 acres)","127 N Griffing Blvd","Asheville",28804,"NC",-82.5424465,35.6302217,"127 n griffing blvd, asheville, nc 28804, usa",2902,4,3,547.9,186.2921824,0.0219684177322016
"222",222,375000,"3bd3ba1,838 sqft","601 Woodfield Dr","Asheville",28803,"NC",-82.4800251,35.555617,"601 woodfield dr, asheville, nc 28803, usa",1838,3,3,204.03,261.1202211,0.0642218312136419
"223",223,539900,"1bd1ba914 sqft","12 S Lexington Ave","Asheville",28801,"NC",-82.5522724,35.5942296,"12 s lexington ave, asheville, nc 28801, usa",914,1,1,590.7,180.9132665,0.0239121228961358
"224",224,340000,"2bd2ba972 sqft (on 0.54 acres)","117 Lower Grassy Branch Rd","Asheville",28805,"NC",-82.474084,35.598323,"117 lower grassy branch rd, asheville, nc 28805, usa",972,2,2,349.79,221.8661081,0.0407672176329515
"225",225,499650,"3bd2ba2,990 sqft (on 0.36 acres)","93 Oakland Rd","Asheville",28801,"NC",-82.5580405,35.5743777,"93 oakland rd, asheville, nc 28801, usa",2990,2,3,167.11,176.5178866,0.0468100069536714
"226",226,975000,"3bd5ba3,616 sqft (on 1.88 acres)","5 Meadow Ridge Dr","Asheville",28804,"NC",-82.5064074,35.6302286,"5 meadow ridge dr, asheville, nc 28804, usa",3616,5,3,269.63,194.9702841,0.0299954283164331
"227",227,550000,"3bd2ba1,364 sqft","415 Bowling Park Rd","Asheville",28803,"NC",-82.543924,35.572704,"415 bowling park rd, asheville, nc 28803, usa",1364,2,3,403.23,214.1297878,0.0529692207290655
"228",228,1795000,"3bd4ba3,653 sqft (on 0.70 acres)","145 Ventana Dr","Asheville",28804,"NC",-82.5554005,35.6583201,"145 ventana dr, asheville, nc 28804, usa",3653,4,3,491.38,196.3414665,NA
"229",229,275000,"3bd2ba1,388 sqft (on 0.68 acres)","110 Rocky Road Dr","Asheville",28806,"NC",-82.6444102,35.6289299,"110 rocky rd dr, asheville, nc 28806, usa",1388,2,3,198.13,210.4282166,NA
"230",230,1999999,"6bd8ba5,829 sqft (on 2.25 acres)","105 Wandering Oaks Way","Asheville",28805,"NC",-82.4633129,35.6148042,"105 wandering oaks way, asheville, nc 28805, usa",5829,8,6,343.11,214.3002441,0.0128120995718101
"231",231,375000,"3bd2ba1,675 sqft (on 0.48 acres)","75 Raleigh Rd","Asheville",28803,"NC",-82.5089541,35.5582501,"75 raleigh rd, asheville, nc 28803, usa",1675,2,3,223.88,193.1106343,0.0560861593207752
"232",232,451000,"3bd4ba2,380 sqft (on 0.34 acres)","106 Smith Graveyard Rd","Asheville",28806,"NC",-82.6083724,35.6006613,"106 smith graveyard rd, asheville, nc 28806, usa",2380,4,3,189.5,189.1443953,0.0436745151653907
"233",233,875000,"2bd3ba1,756 sqft","21 Haywood St","Asheville",28801,"NC",-82.5543634,35.5953358,"21 haywood st, asheville, nc 28801, usa",1756,3,2,498.29,228.3718919,0.0369796850466787
"234",234,425000,"3bd1ba900 sqft","25 Edgehill Ave","Asheville",28801,"NC",-82.5485324,35.5888775,"25 edgehill ave, asheville, nc 28801, usa",900,1,3,472.22,177.8297038,0.0899822348372899
"235",235,375000,"3bd2ba1,430 sqft (on 0.31 acres)","120 Pinecroft Rd","Asheville",28804,"NC",-82.5278729,35.6501492,"120 pinecroft rd, asheville, nc 28804, usa",1430,2,3,262.24,203.4138067,0.122725508178444
"236",236,450000,"1bd1ba556 sqft","145 Biltmore Ave","Asheville",28801,"NC",-82.5516808,35.5899435,"145 biltmore ave, asheville, nc 28801, usa",556,1,1,809.35,177.6754543,0.0256757023017664
"237",237,499000,"3bd3ba1,962 sqft","141 Louisiana Ave","Asheville",28806,"NC",-82.5916286,35.5830789,"141 louisiana ave, asheville, nc 28806, usa",1962,3,3,254.33,222.0362256,0.0554615937549547
"238",238,1995000,"4bd3ba2,797 sqft","411 Charlotte St","Asheville",28801,"NC",-82.5451514,35.6144261,"411 charlotte st, asheville, nc 28801, usa",2797,3,4,713.26,174.8594475,0.0172497798088092
"239",239,469000,"2bd2ba1,012 sqft","406 Bowling Park Rd","Asheville",28803,"NC",-82.54403,35.57253,"406 bowling park rd, asheville, nc 28803, usa",1012,2,2,463.44,220.6773597,0.0426778825494653
"240",240,1250000,"6bd6ba3,481 sqft (on 1.92 acres)","311 Vanderbilt Rd","Asheville",28803,"NC",-82.5392343,35.5509384,"311 vanderbilt rd, biltmore forest, nc 28803, usa",3481,6,6,359.09,167.1744758,0.0160487496743678
"241",241,1325000,"4bd5ba4,224 sqft (on 1.24 acres)","211 S Plains Dr","Asheville",28803,"NC",-82.4846703,35.4905914,"211 s plains dr, asheville, nc 28803, usa",4224,5,4,313.68,228.6563824,0.046421559888704
"242",242,585000,"3bd3ba1,737 sqft","20 Loblolly Ln","Asheville",28803,"NC",-82.5073592,35.5542092,"20 loblolly ln, biltmore forest, nc 28803, usa",1737,3,3,336.79,213.4782865,0.0353257402153508
"243",243,585000,"3bd3ba1,693 sqft","22 Loblolly Ln","Asheville",28803,"NC",-82.5073592,35.5542092,"22 loblolly ln, biltmore forest, nc 28803, usa",1693,3,3,345.54,196.1465956,0.0324577444968882
"244",244,429000,"2bd1ba1,231 sqft","203 Brevard Rd","Asheville",28806,"NC",-82.5937793,35.5709278,"203 brevard rd, asheville, nc 28806, usa",1231,1,2,348.5,201.8018002,0.0397968910855282
"245",245,549000,"3bd3ba3,213 sqft (on 1.22 acres)","132 Royal Pines Dr","Arden",28704,"NC",-82.5177593,35.4743186,"132 royal pines dr, arden, nc 28704, usa",3213,3,3,170.87,227.8163571,0.0430942234699916
"246",246,4250000,"3bd5ba3,751 sqft (on 2.70 acres)","65 Kalmia Dr","Asheville",28804,"NC",-82.489235,35.6495699,"65 kalmia dr, asheville, nc 28804, usa",3751,5,3,1133.03,161.8157831,0.00414058033143452
"247",247,270000,"1bd1ba702 sqft (on 0.27 acres)","14 Jeffress Ave","Asheville",28803,"NC",-82.5329679,35.5462877,"14 jeffress ave, asheville, nc 28803, usa",702,1,1,384.62,176.2191765,0.0218642311621868
"248",248,421990,"4bd3ba1,995 sqft (on 0.34 acres)","757 Fountain Park Blvd","Asheville",28806,"NC",-82.6119468,35.5427601,"fountain pk blvd, asheville, nc 28806, usa",1995,3,4,211.52,200.5942672,NA
"249",249,1299000,"3bd3ba2,021 sqft (on 0.30 acres)","12 Crossvine Aly","Asheville",28804,"NC",-82.6101955,35.6556723,"12 crossvine aly, asheville, nc 28804, usa",2021,3,3,642.75,195.374255,NA
"250",250,599000,"4bd3ba2,436 sqft (on 0.27 acres)","29 Wyntree Dr","Asheville",28803,"NC",-82.4871416,35.5519513,"29 wyntree dr, asheville, nc 28803, usa",2436,3,4,245.89,203.2773477,0.0590528855886117
"251",251,625000,"5bd2ba2,740 sqft (on 0.31 acres)","232 Bear Creek Rd","Asheville",28806,"NC",-82.6091928,35.5677087,"232 bear creek rd, asheville, nc 28806, usa",2740,2,5,228.1,212.5123704,0.0634298827339749
"252",252,398000,"2bd1ba554 sqft","3 N Delano Rd","Asheville",28805,"NC",-82.538093,35.5930753,"3 n delano rd, asheville, nc 28805, usa",554,1,2,718.41,203.6980675,0.0489632569824766
"253",253,385000,"3bd1ba1,298 sqft (on 0.25 acres)","53 Merion Dr","Asheville",28806,"NC",-82.606786,35.5679011,"53 merion dr, asheville, nc 28806, usa",1298,1,3,296.61,197.4556405,0.0674426408403958
"254",254,530000,"3bd3ba2,337 sqft (on 0.35 acres)","17 Drake St","Asheville",28806,"NC",-82.5878664,35.573242,"17 drake st, asheville, nc 28806, usa",2337,3,3,226.79,193.5561605,0.0430260060451119
"255",255,1725000,"5bd3ba4,461 sqft (on 2.10 acres)","122 Overlook Rd","Asheville",28803,"NC",-82.5313721,35.4950763,"122 overlook rd, asheville, nc 28803, usa",4461,3,5,386.68,216.7975363,0.0149244680806184
"256",256,665000,"4bd2ba2,352 sqft (on 0.43 acres)","13 Oakwilde Dr","Asheville",28803,"NC",-82.535261,35.4934878,"13 oakwilde dr, asheville, nc 28803, usa",2352,2,4,282.74,191.0435329,0.0272919332770681
"257",257,565000,"3bd2ba2,220 sqft (on 0.67 acres)","39 Cedar Mountain Rd","Asheville",28803,"NC",-82.459938,35.5451167,"39 cedar mountain rd, asheville, nc 28803, usa",2220,2,3,254.5,227.0032233,0.0456684950636444
"258",258,419990,"4bd3ba1,995 sqft","765 Fountain Park Blvd","Asheville",28806,"NC",-82.6119468,35.5427601,"fountain pk blvd, asheville, nc 28806, usa",1995,3,4,210.52,201.878026,NA
"259",259,940000,"3bd3ba3,818 sqft","64 Stony Rdg","Asheville",28804,"NC",-82.5222354,35.6495881,"64 stony ridge, asheville, nc 28804, usa",3818,3,3,246.2,233.4919033,0.0440591769729233
"260",260,1525000,"4bd5ba4,126 sqft (on 0.31 acres)","3 Fairmont Rd","Asheville",28804,"NC",-82.5407559,35.6090041,"3 fairmont rd, asheville, nc 28804, usa",4126,5,4,369.61,187.6501543,0.0199715819961881
"261",261,370000,"2bd1ba1,057 sqft","23 Jarrett St","Asheville",28806,"NC",-82.5916676,35.5786192,"23 jarrett st, asheville, nc 28806, usa",1057,1,2,350.05,251.8752691,0.0612591710598173
"262",262,459000,"2bd2ba996 sqft","34 New Jersey Ave","Asheville",28806,"NC",-82.5852476,35.5726982,"34 new jersey ave, asheville, nc 28806, usa",996,2,2,460.84,206.089815,0.0322511103849597
"263",263,375000,"3bd2ba1,776 sqft","540 Crowfields Ln","Asheville",28803,"NC",-82.5289626,35.5047968,"540 crowfields ln, asheville, nc 28803, usa",1776,2,3,211.15,191.1021599,NA
"264",264,809500,"4bd4ba2,105 sqft","18 Macallan Ln","Asheville",28805,"NC",-82.53259,35.6016199,"18 macallan ln, asheville, nc 28805, usa",2105,4,4,384.56,185.4476684,0.0222857926909659
"265",265,430000,"3bd2ba1,571 sqft (on 0.42 acres)","65 Overlook Rd","Asheville",28803,"NC",-82.528709,35.5015054,"65 overlook rd, asheville, nc 28803, usa",1571,2,3,273.71,210.5517731,NA
"266",266,409000,"3bd2ba1,456 sqft (on 0.36 acres)","15 W Baird Mountain Rd","Asheville",28804,"NC",-82.5762079,35.6761326,"15 w baird mountain rd, asheville, nc 28804, usa",1456,2,3,280.91,202.0009784,NA
"267",267,664000,"2bd1ba2,400 sqft (on 0.63 acres)","957 Riverside Dr","Asheville",28804,"NC",-82.5778132,35.6237429,"957 riverside dr, woodfin, nc 28804, usa",2400,1,2,276.67,153.0517332,0.016725819171678
"268",268,3400000,"4bd4ba3,481 sqft (on 4.30 acres)","251 Serenity Ridge Trl","Asheville",28804,"NC",-82.5695558,35.6648817,"251 serenity rdg trl, weaverville, nc 28787, usa",3481,4,4,976.73,239.1043871,NA
"269",269,259500,"2bd1ba750 sqft","115 Mimosa Dr","Asheville",28806,"NC",-82.6139639,35.5745055,"115 mimosa dr, asheville, nc 28806, usa",750,1,2,346,205.8509602,0.0474105037320582
"270",270,866775,"4bd4ba3,562 sqft (on 0.62 acres)","33 Patton Pl","Asheville",28805,"NC",-82.4719123,35.5942233,"33 patton pl, asheville, nc 28805, usa",3562,4,4,243.34,193.2789339,0.0263495455629149
"271",271,750000,"2bd2ba1,250 sqft (on 1.72 acres)","124 Rock Hill Rd","Asheville",28803,"NC",-82.5214375,35.5353779,"124 rock hill rd, asheville, nc 28803, usa",1250,2,2,600,198.2067686,NA
"272",272,549900,"4bd3ba1,855 sqft","15 Concord Pl","Asheville",28803,"NC",-82.5096727,35.5599642,"15 concord pl, asheville, nc 28803, usa",1855,3,4,296.44,194.6722524,0.0509386690223433
"273",273,320000,"3bd2ba2,160 sqft (on 0.71 acres)","29 Shope Creek Estates Dr","Asheville",28805,"NC",-82.4466976,35.6423295,"29 shope creek estates dr, asheville, nc 28805, usa",2160,2,3,148.15,184.7923301,NA
"274",274,365000,"1bd1ba697 sqft","18 Brook St","Asheville",28803,"NC",-82.5399105,35.5665397,"18 brook st, asheville, nc 28803, usa",697,1,1,523.67,187.9749324,0.0245813373148217
"275",275,725000,"4bd4ba3,158 sqft (on 0.65 acres)","17 Laurel Summit Dr","Asheville",28803,"NC",-82.4836796,35.5499182,"17 laurel summit, asheville, nc 28803, usa",3158,4,4,229.58,231.9038112,0.061337521465917
"276",276,1950000,"5bd6ba5,978 sqft (on 0.52 acres)","598 Old Toll Rd","Asheville",28804,"NC",-82.5391497,35.6231361,"598 old toll rd, asheville, nc 28804, usa",5978,6,5,326.2,169.6436381,0.0252532196355011
"277",277,1250000,"4bd4ba2,619 sqft (on 0.82 acres)","17 Faulkner Ave","Asheville",28805,"NC",-82.5384291,35.5819206,"17 faulkner ave, asheville, nc 28805, usa",2619,4,4,477.28,200.9550141,0.0253739197747382
"278",278,1350000,"4bd4ba3,343 sqft (on 0.48 acres)","200 Cherokee Rd","Asheville",28804,"NC",-82.5385157,35.6109471,"200 cherokee rd, asheville, nc 28804, usa",3343,4,4,403.83,190.1552708,0.0247060996232386
"279",279,699900,"3bd3ba1,595 sqft","6 Reynolds Rd","Asheville",28806,"NC",-82.5716454,35.5843985,"6 reynolds rd, asheville, nc 28806, usa",1595,3,3,438.81,205.9445531,0.0375264499633006
"280",280,599000,"3bd1ba1,591 sqft (on 1.65 acres)","15 Woodbine Rd","Asheville",28804,"NC",-82.5721524,35.6379206,"15 woodbine rd, asheville, nc 28804, usa",1591,1,3,376.49,207.3380771,0.0360245582231544
"281",281,2200000,"3bd3ba3,069 sqft (on 0.76 acres)","85 Emerald Necklace Dr","Asheville",28803,"NC",-82.5485724,35.5055947,"85 emerald necklace dr, asheville, nc 28803, usa",3069,3,3,716.85,180.7270712,NA
"282",282,279000,"2bd1ba780 sqft","2135 Hendersonville Rd","Arden",28704,"NC",-82.5251719,35.4818113,"2135 hendersonville rd, arden, nc 28704, usa",780,1,2,357.69,213.3504746,NA
"283",283,528000,"3bd2ba2,015 sqft (on 0.34 acres)","28 Independence Blvd","Asheville",28805,"NC",-82.4775391,35.6220611,"28 independence blvd, asheville, nc 28805, usa",2015,2,3,262.03,234.4612317,0.0444226929994309
"284",284,625000,"Studio2,604 sqft (on 4.36 acres)","11 Hazelnut Dr","Asheville",28806,"NC",-82.6079683,35.547693,"11 hazelnut dr, asheville, nc 28806, usa",2604,NA,1,240.02,185.3283944,NA
"285",285,809500,"4bd4ba2,105 sqft","20 Macallan Ln","Asheville",28805,"NC",-82.53268,35.6016199,"20 macallan ln, asheville, nc 28805, usa",2105,4,4,384.56,227.4114574,0.0273287048543836
"286",286,760000,"2bd3ba2,240 sqft","2400 Timber Pl","Asheville",28804,"NC",-82.5436722,35.635267,"2400 timber pl, asheville, nc 28804, usa",2240,3,2,339.29,210.4556718,NA
"287",287,1199000,"3bd4ba3,776 sqft (on 0.79 acres)","126 Galloway Dr","Asheville",28803,"NC",-82.5257286,35.4964069,"126 galloway dr, asheville, nc 28803, usa",3776,4,3,317.53,231.951049,NA
"288",288,419400,"5bd3ba2,949 sqft (on 0.75 acres)","70 Unaka Ave","Asheville",28803,"NC",-82.5224522,35.5638841,"70 unaka ave, asheville, nc 28803, usa",2949,3,5,142.22,196.2501017,0.10294473622489
"289",289,355000,"2bd2ba1,166 sqft","51 Ben Lippen Rd","Asheville",28806,"NC",-82.6123629,35.6070565,"51 dryman mountain rd, asheville, nc 28806, usa",1166,2,2,304.46,197.5958399,0.0400492708452549
"290",290,539000,"3bd2ba1,790 sqft (on 0.40 acres)","37 Pine Spring Dr","Asheville",28805,"NC",-82.5005914,35.5940591,"37 pine spring dr, asheville, nc 28805, usa",1790,2,3,301.12,214.7036111,0.0326351765056981
"291",291,315000,"2bd1ba1,209 sqft (on 0.74 acres)","86 20th St","Asheville",28806,"NC",-82.6145128,35.5771322,"86 20th st, asheville, nc 28806, usa",1209,1,2,260.55,234.7187774,0.0304886030912529
"292",292,545000,"5bd4ba2,331 sqft","215 E Oakview Rd","Asheville",28806,"NC",-82.6061899,35.5537478,"215 e oakview rd, asheville, nc 28806, usa",2331,4,5,233.81,202.7928002,0.120156284535578
"293",293,1e+06,"3bd3ba2,400 sqft (on 5.19 acres)","330 Gorman Bridge Rd","Asheville",28806,"NC",-82.601951,35.6153942,"330 gorman bridge rd, asheville, nc 28806, usa",2400,3,3,416.67,146.0402422,0.00675501316756858
"294",294,6e+05,"2bd3ba","24 Cuddly Rd","Asheville",28805,"NC",-82.47456,35.65541,"24 cuddly rd, asheville, nc 28805, usa",NA,3,2,NA,220.7456674,0.0312175544499218
"295",295,2150000,"4bd4ba3,538 sqft","53 Macon Ave","Asheville",28801,"NC",-82.5436811,35.6113998,"53 macon ave, asheville, nc 28801, usa",3538,4,4,607.69,214.7970785,0.0167889012217968
"296",296,950000,"3bd5ba4,114 sqft (on 2.55 acres)","289 Independence Blvd","Asheville",28805,"NC",-82.4920058,35.6323087,"289 independence blvd, asheville, nc 28805, usa",4114,5,3,230.92,192.5528207,0.0238664154124683
"297",297,550000,"4bd2ba2,232 sqft","6 Vineyard Pl","Asheville city",28804,"NC",-82.5533447,35.617245,"6 vineyard pl, asheville, nc 28804, usa",2232,2,4,246.42,174.7918962,0.0651039876864027
"298",298,445000,"2bd1ba1,057 sqft (on 0.30 acres)","2 Newbern Ave","Asheville",28803,"NC",-82.5061735,35.5589612,"2 newbern ave, asheville, nc 28803, usa",1057,1,2,421,209.9905866,0.0355602036673625
"299",299,380000,"1bd1ba762 sqft","230 Bowling Park Rd","Asheville",28803,"NC",-82.5435,35.57238,"230 bowling park rd, asheville, nc 28803, usa",762,1,1,498.69,217.4119858,0.0253905339298499
"300",300,550000,"4bd4ba2,600 sqft (on 0.66 acres)","6 Echo Ln","Asheville",28806,"NC",-82.6388155,35.5765781,"6 echo ln, asheville, nc 28806, usa",2600,4,4,211.54,206.5421392,0.0474342267063147
"301",301,269000,"3bd2ba1,312 sqft (on 0.28 acres)","3 Cole St","Asheville",28803,"NC",-82.5321445,35.5703878,"3 cole st, asheville, nc 28803, usa",1312,2,3,205.03,199.8448229,0.0766008430346048
"302",302,295000,"3bd2ba1,370 sqft (on 0.28 acres)","208 London Rd","Asheville",28803,"NC",-82.533993,35.5602216,"208 london rd, asheville, nc 28803, usa",1370,2,3,215.33,165.2863354,0.0329171939172572
"303",303,797000,"3bd3ba2,063 sqft (on 0.89 acres)","114 Daybreak Ln","Asheville",28805,"NC",-82.4681538,35.6085451,"114 daybreak ln, asheville, nc 28805, usa",2063,3,3,386.33,208.7565984,0.0447397931866674
"304",304,1390000,"6bd7ba5,909 sqft (on 0.88 acres)","7 Oxford Ct","Asheville",28804,"NC",-82.5699978,35.6375327,"7 oxford ct, asheville, nc 28804, usa",5909,7,6,235.23,214.5649213,0.0344278292098329
"305",305,406648,"3bd3ba1,366 sqft","233 Rockrose Ct","Asheville",28803,"NC",-82.5208584,35.5321101,"rockrose ct, asheville, nc 28803, usa",1366,3,3,297.69,196.8084457,NA
"306",306,393740,"3bd3ba1,382 sqft","241 Rockrose Ct","Asheville",28803,"NC",-82.5208584,35.5321101,"rockrose ct, asheville, nc 28803, usa",1382,3,3,284.91,182.1585987,NA
"307",307,405020,"3bd3ba1,630 sqft","237 Rockrose Ct","Asheville",28803,"NC",-82.5208584,35.5321101,"rockrose ct, asheville, nc 28803, usa",1630,3,3,248.48,223.0327978,NA
"308",308,3900000,"5bd8ba9,481 sqft (on 3.20 acres)","99 Crestridge Dr","Asheville",28803,"NC",-82.4887701,35.5150374,"99 crestridge dr, asheville, nc 28803, usa",9481,8,5,411.35,166.0448853,NA
"309",309,795000,"3bd2ba1,392 sqft (on 3.79 acres)","15 Keenan Rd","Asheville",28805,"NC",-82.5022407,35.5944593,"15 keenan rd, asheville, nc 28805, usa",1392,2,3,571.12,223.21736,0.0207072708210279
"310",310,790000,"3bd3ba2,632 sqft","62 Chimney Crest Dr","Asheville",28806,"NC",-82.6157372,35.6137553,"62 chimney crest dr, asheville, nc 28806, usa",2632,3,3,300.15,207.9419165,0.0394826423772823
"311",311,450000,"3bd3ba2,792 sqft","460 Crowfields Dr","Asheville",28803,"NC",-82.531586,35.507165,"460 crowfields dr, asheville, nc 28803, usa",2792,3,3,161.17,167.633891,0.0284977614731924
"312",312,299000,"3bd2ba1,594 sqft (on 0.32 acres)","115 Hanover St","Asheville",28806,"NC",-82.5827555,35.5736074,"115 hanover st, asheville, nc 28806, usa",1594,2,3,187.58,207.1645601,0.075073307931011
"313",313,1575000,"4bd5ba3,457 sqft (on 1.15 acres)","4 Fairway Pl","Asheville",28803,"NC",-82.5340141,35.534606,"4 fairway pl, biltmore forest, nc 28803, usa",3457,5,4,455.6,170.8410377,NA
"314",314,2995000,"4bd6ba7,828 sqft (on 1.67 acres)","8 Hemlock Rd","Asheville",28803,"NC",-82.5423483,35.5202616,"8 hemlock rd, biltmore forest, nc 28803, usa",7828,6,4,382.6,196.230203,NA
"315",315,1600000,"4bd3ba3,817 sqft (on 1.08 acres)","15 Bent Tree Rd","Asheville",28804,"NC",-82.5349652,35.6160373,"15 bent tree rd, asheville, nc 28804, usa",3817,3,4,419.18,185.8980656,0.0203326009288885
"316",316,425000,"1bd1ba633 sqft","12 S Lexington Ave","Asheville",28801,"NC",-82.5522724,35.5942296,"12 s lexington ave, asheville, nc 28801, usa",633,1,1,671.41,206.6492965,0.0346981282158435
"317",317,1100000,"4bd4ba3,052 sqft","138 S French Broad Ave","Asheville",28801,"NC",-82.5589701,35.5888431,"138 s french broad ave, asheville, nc 28801, usa",3052,4,4,360.42,205.0228877,0.0403090184029159
"318",318,359000,"3bd3ba1,350 sqft","22 Westmore Dr","Asheville",28806,"NC",-82.6212689,35.5819996,"22 westmore dr, asheville, nc 28806, usa",1350,3,3,265.93,197.881084,0.0530071427480682
"319",319,2700000,"11bd12ba6,427 sqft (on 0.60 acres)","46 Cumberland Cir","Asheville",28801,"NC",-82.5644402,35.6065205,"46 cumberland cir, asheville, nc 28801, usa",6427,12,11,420.1,180.1537201,0.0369930486438383
"320",320,619900,"3bd3ba1,640 sqft","12 Tahkieostie Trl","Asheville",28806,"NC",-82.5694625,35.570772,"12 tahkieostie trail, asheville, nc 28806, usa",1640,3,3,377.99,232.7402821,0.0542906090584888
"321",321,3495000,"5bd7ba7,438 sqft (on 1.11 acres)","32 Ramble Way","Asheville",28803,"NC",-82.542283,35.511137,"32 ramble way, asheville, nc 28803, usa",7438,7,5,469.88,220.3374619,NA
"322",322,1250000,"3bd4ba2,645 sqft (on 1.52 acres)","600 Old Toll Rd","Asheville",28804,"NC",-82.5391075,35.6218166,"600 old toll rd, asheville, nc 28804, usa",2645,4,3,472.59,203.2008211,0.0283126477418805
"323",323,435000,"3bd3ba1,773 sqft","305 Piney Mountain Dr","Asheville",28805,"NC",-82.5250311,35.5896727,"305 piney mountain dr, asheville, nc 28805, usa",1773,3,3,245.35,202.7298064,NA
"324",324,720000,"4bd4ba2,061 sqft","111 White Ash Dr E","Asheville",28803,"NC",-82.5561454,35.489157,"111 white ash dr e, asheville, nc 28803, usa",2061,4,4,349.34,211.6189337,NA
"325",325,1750000,"8bd6ba5,348 sqft (on 3.19 acres)","103 Weaverville Rd","Asheville",28804,"NC",-82.5793762,35.6432506,"103 weaverville rd, woodfin, nc 28804, usa",5348,6,8,327.23,171.4327311,0.0279027178489783
"326",326,1399500,"4bd4ba3,565 sqft (on 0.31 acres)","42 Chimney Crest Dr","Asheville",28806,"NC",-82.615716,35.6129255,"42 chimney crest dr, asheville, nc 28806, usa",3565,4,4,392.57,219.7822763,0.0314086854321668
"327",327,224900,"1bd1ba336 sqft","26 Broadview Ave","Asheville",28803,"NC",-82.5084823,35.5600847,"26 broadview ave, asheville, nc 28803, usa",336,1,1,669.35,198.48782,0.0306890299310897
"328",328,545355,"3bd3ba1,904 sqft","50 Mayday St","Asheville",28806,"NC",-82.6159271,35.5692059,"asheville, nc 28806, usa",1904,3,3,286.43,185.2231805,0.0322655924087444
"329",329,319000,"2bd2ba1,195 sqft","206 Abbey Cir","Asheville",28805,"NC",-82.5062375,35.5790976,"206 abbey cir, asheville, nc 28805, usa",1195,2,2,266.95,201.8441323,0.0566935243212966
"330",330,829900,"2bd2ba1,909 sqft","21 Battery Park Ave","Asheville",28801,"NC",-82.5553567,35.5954708,"21 battery park ave, asheville, nc 28801, usa",1909,2,2,434.73,173.8725944,0.0293621443177273
"331",331,439890,"4bd3ba1,995 sqft","46 Hamrick Dr","Candler",28715,"NC",-82.655079,35.555138,"46 hamrick dr, candler, nc 28715, usa",1995,3,4,220.5,215.8128149,0.037940222213439
"332",332,420000,"3bd2ba1,248 sqft","4 Overlook Pl","Asheville",28803,"NC",-82.5300362,35.50175,"4 overlook pl, asheville, nc 28803, usa",1248,2,3,336.54,200.0321163,NA
"333",333,420000,"3bd2ba1,248 sqft","8 Overlook Pl","Asheville",28803,"NC",-82.5302003,35.501765,"8 overlook pl, asheville, nc 28803, usa",1248,2,3,336.54,214.4039477,NA
"334",334,420000,"3bd2ba1,248 sqft","14 Overlook Pl","Asheville",28803,"NC",-82.5302414,35.5017688,"14 overlook pl, asheville, nc 28803, usa",1248,2,3,336.54,209.2511083,NA
"335",335,420000,"3bd2ba1,248 sqft (on 0.29 acres)","105 Round Table Trl","Asheville",28803,"NC",-82.5437614,35.5671423,"biltmore forest, nc 28803, usa",1248,2,3,336.54,174.3085546,0.0612925794954538
"336",336,480000,"4bd3ba2,496 sqft","10 Overlook Pl","Asheville",28803,"NC",-82.5302414,35.5017688,"10 overlook pl, asheville, nc 28803, usa",2496,3,4,192.31,207.5169455,NA
"337",337,420000,"3bd2ba1,248 sqft (on 0.29 acres)","109 Round Table Trl","Asheville",28803,"NC",-82.5437614,35.5671423,"biltmore forest, nc 28803, usa",1248,2,3,336.54,159.574972,0.0561117707547993
"338",338,2199000,"4bd4ba4,568 sqft (on 6.39 acres)","112 Big Spring Dr","Asheville",28804,"NC",-82.5038717,35.6358209,"112 big spring dr, asheville, nc 28804, usa",4568,4,4,481.39,224.4705333,NA
"339",339,457900,"3bd3ba1,528 sqft","16 Cane St","Asheville",28806,"NC",-82.6205166,35.571594,"16 cane st, asheville, nc 28806, usa",1528,3,3,299.67,215.9181009,0.0457983087010876
"340",340,3e+05,"3bd1ba1,218 sqft (on 1.11 acres)","20 Kenwood St","Asheville",28806,"NC",-82.5873595,35.6104814,"20 kenwood st, asheville, nc 28806, usa",1218,1,3,246.31,184.3092372,0.071573420453544
"341",341,664900,"4bd4ba3,119 sqft (on 0.54 acres)","7 Glen Cable Rd","Asheville",28805,"NC",-82.456468,35.5967829,"7 glen cable rd, asheville, nc 28805, usa",3119,4,4,213.18,220.3468573,NA
"342",342,265000,"2bd1ba1,029 sqft","2 Oteen Park Pl","Asheville",28805,"NC",-82.4893095,35.5868975,"2 oteen park pl, asheville, nc 28805, usa",1029,1,2,257.53,204.9455991,0.0559595396051283
"343",343,2848000,"4bd6ba4,552 sqft (on 0.45 acres)","236 Kelmscott Ln","Asheville",28803,"NC",-82.5511107,35.5003813,"236 kelmscott ln, biltmore forest, nc 28803, usa",4552,6,4,625.66,199.8955176,NA
"344",344,1150000,"1bd1ba614 sqft (on 4.30 acres)","225 Emma Rd","Asheville",28806,"NC",-82.5769683,35.5965837,"225 emma rd, asheville, nc 28806, usa",614,1,1,1872.96,195.9771038,NA
"345",345,2995000,"4bd4ba5,240 sqft (on 2.01 acres)","418 Coopers Hawk Dr","Asheville",28803,"NC",-82.5559911,35.495472,"418 coopers hawk dr, asheville, nc 28803, usa",5240,4,4,571.56,194.6412442,NA
"346",346,388730,"3bd3ba1,329 sqft","245 Rockrose Ct","Asheville",28803,"NC",-82.5208584,35.5321101,"rockrose ct, asheville, nc 28803, usa",1329,3,3,292.5,184.6126276,NA
"347",347,5e+05,"1bd1ba660 sqft (on 1.03 acres)","8 Bee Hive Ln","Asheville",28803,"NC",-82.4869119,35.5493791,"8 bee hive ln, biltmore forest, nc 28803, usa",660,1,1,757.58,206.5218447,0.0170420237652012
"348",348,334900,"4bd3ba1,598 sqft","78 Hanover St","Asheville",28806,"NC",-82.5821935,35.5749323,"78 hanover st, asheville, nc 28806, usa",1598,3,4,209.57,206.7668447,0.0930302331257692
"349",349,995000,"3bd1ba1,482 sqft (on 1 acre)","342 Short Michigan Ave","Asheville",28806,"NC",-82.5783384,35.5671078,"342 short michigan ave, asheville, nc 28806, usa",1482,1,3,671.39,202.6283865,0.020975601813794
"350",350,690000,"4bd3ba2,478 sqft","184 Aurora Dr","Asheville",28805,"NC",-82.5313299,35.587089,"184 aurora dr, asheville, nc 28805, usa",2478,3,4,278.45,195.3894895,0.0693538296710922
"351",351,475000,"4bd2ba1,500 sqft","59 Branning St","Asheville",28806,"NC",-82.578783,35.584767,"59 branning st, asheville, nc 28806, usa",1500,2,4,316.67,185.8932675,0.0761590273925318
"352",352,585000,"4bd2ba1,500 sqft (on 0.25 acres)","59 & 61 Branning St","Asheville",28806,"NC",NA,NA,NA,1500,2,4,390,159.0301435,NA
"353",353,425000,"2bd2ba2,034 sqft (on 1.25 acres)","22 Spreading Oak Ln","Asheville",28806,"NC",-82.6440186,35.5700961,"22 spreading oaks ln, asheville, nc 28806, usa",2034,2,2,208.95,170.9695981,0.021726548336192
"354",354,425000,"2bd3ba1,344 sqft (on 0.32 acres)","8 Deanwood Cir","Asheville",28803,"NC",-82.5295122,35.5387705,"8 deanwood cir, asheville, nc 28803, usa",1344,3,2,316.22,199.3868025,0.0477746416869485
"355",355,450000,"3bd3ba1,400 sqft","10 Chapel Park Rd","Asheville",28803,"NC",-82.5309292,35.5561941,"10 chapel park rd, asheville, nc 28803, usa",1400,3,3,321.43,193.0118488,0.0538824744475604
"356",356,6e+05,"3bd3ba2,675 sqft (on 0.58 acres)","134 Eastmoor Dr","Asheville",28805,"NC",-82.4577689,35.59723,"134 eastmoor dr, asheville, nc 28805, usa",2675,3,3,224.3,214.5999095,0.0268249886868593
"357",357,405000,"4bd2ba1,476 sqft (on 0.33 acres)","13 Melody Ln","Asheville",28803,"NC",-82.5319052,35.5682743,"13 melody ln, asheville, nc 28803, usa",1476,2,4,274.39,203.7315557,0.0579877408478923
"358",358,490000,"3bd3ba2,101 sqft (on 0.25 acres)","36 Climbing Aster Way","Asheville",28806,"NC",-82.6493359,35.6135175,"36 climbing aster way, asheville, nc 28806, usa",2101,3,3,233.22,179.8335626,0.0379141448394316
"359",359,195000,"2bd1ba1,017 sqft (on 0.76 acres)","405 Deaverview Rd","Asheville",28806,"NC",-82.624645,35.5823014,"405 deaverview rd, asheville, nc 28806, usa",1017,1,2,191.74,203.4521103,0.0745618448296528
"360",360,1010000,"3bd2ba2,223 sqft (on 0.35 acres)","46 Ashe Park Cir","Asheville",28806,"NC",-82.629104,35.547409,"46 ashe park cir, asheville, nc 28806, usa",2223,2,3,454.34,168.0041598,0.017911809839519
"361",361,805000,"3bd3ba1,943 sqft (on 0.26 acres)","22 Ashe Park Cir","Asheville",28806,"NC",-82.627732,35.547739,"22 ashe park cir, asheville, nc 28806, usa",1943,3,3,414.31,189.3288797,0.023140149737461
"362",362,899999,"3bd2ba2,400 sqft","60 Haywood St","Asheville",28801,"NC",-82.555484,35.596383,"60 haywood st, asheville, nc 28801, usa",2400,2,3,375,182.8491642,0.0443138250768423
"363",363,998000,"2bd2ba1,331 sqft","84 W Walnut St","Asheville",28801,"NC",-82.554579,35.596043,"84 w walnut st, asheville, nc 28801, usa",1331,2,2,749.81,214.3098017,0.0311941661682405
"364",364,2400000,"4bd6ba6,366 sqft (on 2.55 acres)","78 Crestridge Dr","Asheville",28803,"NC",-82.48868,35.513941,"78 crestridge dr, asheville, nc 28803, usa",6366,6,4,377,189.0749115,NA
"365",365,599000,"3bd3ba1,992 sqft (on 1.68 acres)","12 Mercy Ridge Rd","Asheville",28804,"NC",-82.489657,35.6611477,"12 mercy ridge rd, asheville, nc 28804, usa",1992,3,3,300.7,193.5052649,NA
"366",366,1850000,"4bd4ba4,507 sqft (on 4.46 acres)","360 Webb Cove Rd","Asheville",28804,"NC",-82.4971619,35.6508215,"360 webb cove rd, asheville, nc 28804, usa",4507,4,4,410.47,211.1695354,0.0243637644134662
"367",367,974850,"3bd4ba3,604 sqft (on 1.19 acres)","32 Indian Knob Rd","Asheville",28803,"NC",-82.4771807,35.5261623,"32 indian knob rd, biltmore forest, nc 28803, usa",3604,4,3,270.49,188.8081898,0.0273875332233311
"368",368,2300000,"4bd4ba3,794 sqft (on 11.62 acres)","230 Merrills Cove Rd","Asheville",28803,"NC",-82.4766929,35.4973333,"230 merrills cove rd, asheville, nc 28803, usa",3794,4,4,606.22,179.0353568,0.00818892153674113
"369",369,6750000,"5bd6ba10,791 sqft (on 3.93 acres)","9 Brooklawn Chas","Asheville",28803,"NC",-82.539498,35.516834,"9 brooklawn chase, biltmore forest, nc 28803, usa",10791,6,5,625.52,185.6954754,NA
"370",370,730000,"4bd4ba2,415 sqft","38 Myrtle Lee Cv","Arden",28704,"NC",-82.520311,35.478624,"38 myrtle lee cv, arden, nc 28704, usa",2415,4,4,302.28,219.1337749,0.0371226623304068
"371",371,6e+05,"3bd1ba1,385 sqft (on 0.26 acres)","51 Henrietta St","Asheville",28801,"NC",-82.5524203,35.6101939,"51 henrietta st, asheville, nc 28801, usa",1385,1,3,433.21,168.5400052,0.035050983991755
"372",372,175000,"2bd1ba988 sqft (on 0.26 acres)","37 Shadowlawn Dr","Asheville",28806,"NC",-82.6198746,35.5739327,"37 shadowlawn dr, asheville, nc 28806, usa",988,1,2,177.13,220.3173688,0.065465732454772
"373",373,1249990,"4bd4ba3,380 sqft (on 1.15 acres)","407 Melnick Ter","Asheville",28803,"NC",-82.482442,35.4894829,"407 melnick terrace, asheville, nc 28803, usa",3380,4,4,369.82,201.3055983,0.0395635767674658
"374",374,1174990,"4bd4ba3,032 sqft (on 0.94 acres)","409 Melnick Ter","Asheville",28803,"NC",-82.4825398,35.4901537,"409 melnick terrace, asheville, nc 28803, usa",3032,4,4,387.53,185.8005237,0.0388471351388887
"375",375,1549000,"3bd3ba3,907 sqft (on 2.69 acres)","1200 Town Mountain Rd","Asheville",28804,"NC",-82.5097467,35.6282117,"1200 town mountain rd, asheville, nc 28804, usa",3907,3,3,396.47,193.4631402,0.018734326033775
"376",376,250000,"2bd528 sqft (on 0.30 acres)","75 Glendale Ave","Asheville",28803,"NC",-82.5237734,35.5711391,"75 glendale ave, asheville, nc 28803, usa",528,NA,2,473.48,239.4854666,0.0668406356375832
"377",377,1750000,"10bd6ba1,590 sqft (on 1.29 acres)","1 Three 5 Courtney St","Asheville",28806,"NC",-82.5909074,35.570326,"5 courtney st, asheville, nc 28806, usa",1590,6,10,1100.63,204.8204412,0.0446333674000585
"378",378,465000,"2bd2ba871 sqft","25 Ora St","Asheville",28801,"NC",-82.5612518,35.5817592,"25 ora st, asheville, nc 28801, usa",871,2,2,533.87,220.4388084,0.0466986938081583
"379",379,2795000,"4bd5ba4,470 sqft (on 0.53 acres)","38 Emerald Necklace Dr","Asheville",28803,"NC",-82.5466251,35.5026722,"38 emerald necklace dr, asheville, nc 28803, usa",4470,5,4,625.28,222.120516,NA
"380",380,2e+06,"5bd6ba7,270 sqft (on 4.88 acres)","204 Mount Olive Dr","Asheville",28804,"NC",-82.5092393,35.6237627,"204 mt olive dr, asheville, nc 28804, usa",7270,6,5,275.1,190.9537787,0.0214557787469397
"381",381,880000,"1bd2ba1,240 sqft","7 Patton Ave","Asheville",28801,"NC",-82.5521879,35.5952443,"7 patton ave, asheville, nc 28806, usa",1240,2,1,709.68,204.5963814,0.0170597654804453
"382",382,2200000,"4bd5ba4,982 sqft (on 1.07 acres)","92 Robinhood Rd","Asheville",28804,"NC",-82.5530542,35.6540243,"92 robinhood rd, asheville, nc 28804, usa",4982,5,4,441.59,229.5194571,NA
"383",383,650000,"9bd3,899 sqft (on 2.23 acres)","84 & 92 E Mountain Way","Asheville",28805,"NC",NA,NA,NA,3899,NA,9,166.71,214.6152414,NA
"384",384,1700000,"Studio3,824 sqft (on 0.57 acres)","10 Roberts St","Asheville",28801,"NC",-82.5688148,35.5904287,"10 roberts st, asheville, nc 28801, usa",3824,NA,1,444.56,166.2998856,0.00424548730653949
"385",385,4950000,"6bd7ba8,553 sqft (on 1.82 acres)","45 Mirehouse Run","Asheville",28803,"NC",-82.5490606,35.5117201,"45 mirehouse run, asheville, nc 28803, usa",8553,7,6,578.74,208.8380434,NA
"386",386,625000,"8bd6ba3,524 sqft (on 1.40 acres)","688 Upper Grassy Branch Ext","Asheville",28805,"NC",-82.4779198,35.6171577,"688 upper grassy branch extension, asheville, nc 28805, usa",3524,6,8,177.36,209.7934828,0.103959293826678
"387",387,425000,"2bd2ba1,660 sqft (on 0.37 acres)","344 W Haywood St","Asheville",28801,"NC",-82.5650334,35.5907689,"344 w haywood st, asheville, nc 28801, usa",1660,2,2,256.02,236.8336673,0.0540237276030567
"388",388,1975000,"3bd3ba2,169 sqft","151 Haywood St","Asheville",28801,"NC",-82.5584511,35.5966697,"151 haywood st, asheville, nc 28801, usa",2169,3,3,910.56,190.4940938,0.0188073590205953
"389",389,741590,"2bd3ba2,074 sqft","213 Torch Light Way","Asheville",28806,"NC",-82.6294377,35.5708996,"213 torch light way, asheville, nc 28806, usa",2074,3,2,357.57,198.4866703,0.0235967589268578
"390",390,1600000,"3bd2ba3,266 sqft (on 0.67 acres)","731 New Leicester Hwy","Asheville",28806,"NC",-82.6391229,35.6137007,"731 new leicester hwy, asheville, nc 28806, usa",3266,2,3,489.9,199.2030461,0.0127514158227263
"391",391,3250000,"6bd5ba7,778 sqft (on 0.78 acres)","345 Midland Dr","Asheville",28804,"NC",-82.566784,35.6403143,"345 midland dr, asheville, nc 28804, usa",7778,5,6,417.85,165.3439654,0.0204517766394844
"392",392,1995000,"4bd6ba6,170 sqft (on 1.59 acres)","4 Cedar Hill Dr","Asheville",28803,"NC",-82.5449189,35.5217573,"4 cedar hill dr, biltmore forest, nc 28803, usa",6170,6,4,323.34,210.6736559,NA
"393",393,2995000,"3bd3ba4,852 sqft","23 Rankin Ave","Asheville",28801,"NC",-82.5533289,35.5962072,"23 rankin ave, asheville, nc 28801, usa",4852,3,3,617.27,168.129802,0.0124486015881235
"394",394,8750000,"10bd9ba13,675 sqft (on 4.44 acres)","7 Stuyvesant Rd","Asheville",28803,"NC",-82.5362776,35.5372434,"7 stuyvesant rd, biltmore forest, nc 28803, usa",13675,9,10,639.85,205.0879665,NA
"395",395,663893,"3bd3ba1,549 sqft","309 Iron Ridge Loop","Asheville",28806,"NC",-82.6295805,35.5717696,"309 iron rdg lp, asheville, nc 28806, usa",1549,3,3,428.59,185.1916873,0.0368892250835695
"396",396,676101,"3bd3ba1,457 sqft","129 Rough Bark Trl","Asheville",28806,"NC",-82.6294174,35.5723163,"129 rough bark trl, north carolina 28806, usa",1457,3,3,464.04,195.4147954,0.0382227559402447
"397",397,4850000,"6bd9ba10,056 sqft (on 0.99 acres)","9 Eastwood Rd","Asheville",28803,"NC",-82.531816,35.5301321,"9 eastwood rd, biltmore forest, nc 28803, usa",10056,9,6,482.3,195.5505263,NA
"398",398,1200000,"Studio1,032 sqft (on 5.39 acres)","223 Odonald Rd","Asheville",28806,"NC",-82.6506984,35.6180105,"223 odonald rd, asheville, nc 28806, usa",1032,NA,1,1162.79,195.4616854,0.00382575527931171
"399",399,550000,"3bd3ba2,151 sqft","10516 Turnbull Loop","Austin",78717,"TX",-97.7873271,30.4782918,"10516 turnbull loop, austin, tx 78717, usa",2151,3,3,255.7,200.0162178,0.0327602320391745
"400",400,599900,"4bd3ba2,334 sqft","3400 Lynnbrook Dr","Austin",78748,"TX",-97.8453586,30.1702549,"3400 lynnbrook dr, austin, tx 78748, usa",2334,3,4,257.03,160.4163037,NA
"401",401,499900,"Studio1,653 sqft","6708 Aries Ln","Austin",78724,"TX",-97.644957,30.2983198,"6708 aries ln, austin, tx 78724, usa",1653,NA,1,302.42,208.493558,0.0116978353435545
"402",402,2750000,"Studio","2501 Inwood Pl","Austin",78703,"TX",-97.7708949,30.2880745,"2501 inwood pl, austin, tx 78703, usa",NA,NA,1,NA,193.60158,0.00444421226930062
"403",403,429000,"2bd2ba1,189 sqft","8200 Neely Dr","Austin",78759,"TX",-97.7596663,30.3762329,"8200 neely dr, austin, tx 78759, usa",1189,2,2,360.81,204.4619406,0.0382620030678832
"404",404,429000,"Studio","106 Kite St","Austin",78734,"TX",-97.987127,30.358292,"106 kite st, lakeway, tx 78734, usa",NA,NA,1,NA,213.6359687,0.0207770800929275
"405",405,270000,"2bd2ba1,072 sqft","6718 Silvermine Dr","Austin",78736,"TX",-97.890282,30.245452,"6718 silvermine dr, austin, tx 78736, usa",1072,2,2,251.87,210.2017442,0.060292434457303
"406",406,4500000,"4bd5ba4,948 sqft (on 1.16 acres)","14 Rob Roy Rd","Austin",78746,"TX",-97.834097,30.3100014,"14 rob roy rd, austin, tx 78746, usa",4948,5,4,909.46,215.9350931,NA
"407",407,1100000,"4bd3ba2,881 sqft (on 0.25 acres)","Address Not Disclosed","Lakeway",78738,"TX",-97.991679,30.3679788,"lakeway, tx, usa",2881,3,4,381.81,181.219038,0.0336342534615827
"408",408,1145000,"4bd4ba3,494 sqft (on 0.44 acres)","184 Egret Ln","Dripping springs",78620,"TX",-98.0045504,30.1670118,"184 egret ln, austin, tx 78737, usa",3494,4,4,327.7,209.9394111,0.031170043571348
"409",409,499000,"4bd2ba1,800 sqft","2000 Crystal Shore Dr","Austin",78728,"TX",-97.6771305,30.441494,"2000 crystal shore dr, austin, tx 78728, usa",1800,2,4,277.22,192.0246588,0.0721792087569108
"410",410,385000,"2bd2ba1,064 sqft","6810 Deatonhill Dr","Austin",78745,"TX",-97.8179513,30.2091731,"6810 deatonhill dr, austin, tx 78745, usa",1064,2,2,361.84,184.4857958,0.0316041738265499
"411",411,3695000,"5bd6ba6,121 sqft (on 0.86 acres)","5912 Waymaker Cv","Austin",78746,"TX",-97.8093064,30.3246239,"5912 waymaker cove, austin, tx 78746, usa",6121,6,5,603.66,158.1048163,0.0237715856779217
"412",412,649900,"1bd2ba861 sqft","2710 Francisco","Austin",78702,"TX",-97.7095308,30.2630436,"2710 francisco st, austin, tx 78702, usa",861,2,1,754.82,189.613347,0.0218654706355042
"413",413,665000,"3bd2ba2,075 sqft","5000 Mission Oaks Blvd","Austin",78735,"TX",-97.8381765,30.2437102,"5000 mission oaks blvd, austin, tx 78735, usa",2075,2,3,320.48,170.745259,NA
"414",414,799000,"2bd2ba1,409 sqft","555 E 5th St","Austin",78701,"TX",-97.7379095,30.2654556,"555 e 5th st., austin, tx 78701, usa",1409,2,2,567.07,200.8804922,0.102111726210357
"415",415,369500,"2bd2ba1,167 sqft","1727 Timber Ridge Dr","Austin",78741,"TX",-97.7417021,30.2262593,"1727 timber ridge dr, austin, tx 78741, usa",1167,2,2,316.62,169.1244607,0.0461147682222263
"416",416,545000,"1bd1ba780 sqft","800 Embassy Dr","Austin",78702,"TX",-97.7322726,30.2675703,"800 embassy dr, austin, tx 78702, usa",780,1,1,698.72,210.1167615,0.128215698337708
"417",417,5e+05,"5bd3ba2,385 sqft","10124 Pinnacle Crest Loop","Austin",78747,"TX",-97.7644419,30.1403364,"10124 pinnacle crest loop, austin, tx 78747, usa",2385,3,5,209.64,188.3143222,0.060260583118957
"418",418,569000,"3bd3ba1,832 sqft (on 0.31 acres)","11719 Bell Ave","Austin",78759,"TX",-97.7508587,30.4194627,"11719 bell ave, austin, tx 78759, usa",1832,3,3,310.59,198.2858806,0.0389427893768436
"419",419,997000,"4bd3ba3,512 sqft","3224 Summer Canyon Dr","Austin",78732,"TX",-97.903948,30.379633,"3224 summer canyon dr, austin, tx 78732, usa",3512,3,4,283.88,189.195498,NA
"420",420,449500,"1bd2ba1,190 sqft","4801 S Congress Ave","Austin",78745,"TX",-97.7695363,30.2133539,"4801 s congress ave, austin, tx 78745, usa",1190,2,1,377.73,173.870979,0.116920003261502
"421",421,310000,"2bd1ba720 sqft (on 0.50 acres)","1616 Webberville Rd","Austin",78721,"TX",-97.6790385,30.2809614,"1616 webberville rd, austin, tx 78721, usa",720,1,2,430.56,199.1340484,0.109746771029115
"422",422,459000,"2bd2ba1,027 sqft","1741 Spyglass Dr","Austin",78746,"TX",-97.7902785,30.2575214,"1741 spyglass dr, austin, tx 78746, usa",1027,2,2,446.93,223.6119869,0.434832610048932
"423",423,1400000,"3bd2ba","8811 Honeycomb Dr","Austin",78737,"TX",-97.9184965,30.2183615,"8811 honeycomb dr, austin, tx 78737, usa",NA,2,3,NA,174.0045568,NA
"424",424,379000,"3bd3ba1,659 sqft","12520 La Paz Ln","Del valle",78617,"TX",-97.6283039,30.1670661,"12520 la paz ln, del valle, tx 78617, usa",1659,3,3,228.45,203.4615272,0.0341583386761301
"425",425,1190000,"3bd2ba1,936 sqft","1196 San Bernard St","Austin",78702,"TX",-97.72667,30.2722444,"1196 san bernard st, austin, tx 78702, usa",1936,2,3,614.67,199.0851871,0.0388227012656364
"426",426,606000,"2bd3ba1,975 sqft","7800 Southwest Pkwy","Austin",78735,"TX",-97.8761992,30.2582881,"7800 southwest pkwy, austin, tx 78735, usa",1975,3,2,306.84,210.7179894,NA
"427",427,499999,"5bd2ba2,375 sqft (on 0.32 acres)","1402 Cardinal Hill Dr","Austin",78758,"TX",-97.6834906,30.4093107,"1402 cardinal hill dr, austin, tx 78758, usa",2375,2,5,210.53,167.1380701,0.0745604421791278
"428",428,1649000,"4bd2ba2,285 sqft (on 0.32 acres)","1506 Falcon Ledge Dr","Austin",78746,"TX",-97.8442536,30.2861566,"1506 falcon ledge dr, austin, tx 78746, usa",2285,2,4,721.66,202.2961393,NA
"429",429,350000,"Studio","103 Pine Barrens Ct","Austin",78738,"TX",-97.997353,30.336266,"103 pine barrens ct, austin, tx 78738, usa",NA,NA,1,NA,171.3026209,0.0177420571624287
"430",430,470000,"2bd2ba1,149 sqft","4413 Merle Dr","Austin",78745,"TX",-97.7878367,30.2279021,"4413 merle dr, austin, tx 78745, usa",1149,2,2,409.05,167.5684843,0.0331111811408021
"431",431,695000,"3bd2ba2,158 sqft","940 E 52nd St","Austin",78751,"TX",-97.711779,30.3117246,"940 e 52nd st, austin, tx 78751, usa",2158,2,3,322.06,198.0890609,0.133938442110769
"432",432,590000,"2bd3ba1,098 sqft","3605 Oak Springs Dr","Austin",78721,"TX",-97.6942618,30.2735277,"3605 oak springs dr, austin, tx 78721, usa",1098,3,2,537.34,160.3084902,0.0232598734811602
"433",433,399900,"5bd2ba1,476 sqft","6103 Palm Cir","Austin",78741,"TX",-97.700878,30.2338977,"6103 palm cir, austin, tx 78741, usa",1476,2,5,270.93,156.6537141,0.0677349667190608
"434",434,515000,"3bd2ba1,282 sqft","5506 Kings Hwy","Austin",78745,"TX",-97.7948863,30.2148043,"5506 kings hwy, austin, tx 78745, usa",1282,2,3,401.72,205.7980329,0.0527615539314452
"435",435,215000,"Studio1ba393 sqft","2529 Rio Grande St","Austin",78705,"TX",-97.7441317,30.2896847,"2529 rio grande st, austin, tx 78705, usa",393,1,1,547.07,186.448442,0.0351312376302488
"436",436,749000,"4bd3ba1,863 sqft (on 0.42 acres)","8407 Copano Dr","Austin",78749,"TX",-97.8510114,30.2061199,"8407 copano dr, austin, tx 78749, usa",1863,3,4,402.04,182.1857058,0.0392114124365972
"437",437,7900000,"2bd1ba1,800 sqft (on 43.17 acres)","8700 Madrone Ranch Trl","Austin",78738,"TX",-98.0458678,30.3072946,"8700 madrone ranch trail, austin, tx 78738, usa",1800,1,2,4388.89,185.6613354,NA
"438",438,1200000,"3bd3ba2,812 sqft (on 0.38 acres)","3219 Smoky Rdg","Austin",78730,"TX",-97.8207765,30.3371868,"3219 smoky ridge, austin, tx 78730, usa",2812,3,3,426.74,193.6582018,0.0633793535167094
"439",439,7900000,"2bd1ba1,800 sqft (on 43.17 acres)","18700 Moreh Peak Pass","Austin",78738,"TX",-97.9701846,30.2966026,"vlg o the hls, tx 78738, usa",1800,1,2,4388.89,172.2548474,NA
"440",440,1279000,"4bd3ba3,400 sqft (on 0.29 acres)","37 Glen Rock Dr","The hills",78738,"TX",-97.9835116,30.3436291,"37 glen rock dr, the hills, tx 78738, usa",3400,3,4,376.18,203.7067641,0.029016160015907
"441",441,274000,"1bd1ba712 sqft","3839 Dry Creek Dr","Austin",78731,"TX",-97.7644844,30.3430294,"3839 dry creek dr, austin, tx 78731, usa",712,1,1,384.83,182.5809163,0.0413694594327029
"442",442,1600000,"4bd3ba3,374 sqft (on 0.61 acres)","4005 River Place Blvd","Austin",78730,"TX",-97.8609394,30.3672461,"4005 river pl blvd, austin, tx 78730, usa",3374,3,4,474.21,190.4470226,NA
"443",443,780000,"4bd4ba3,291 sqft","9609 Castle Pines Dr","Austin",78717,"TX",-97.7606638,30.4954871,"9609 castle pines dr, austin, tx 78717, usa",3291,4,4,237.01,175.1514314,NA
"444",444,599000,"Studio1ba447 sqft","48 East Ave","Austin",78701,"TX",-97.738827,30.2564542,"48 east ave, austin, tx 78701, usa",447,1,1,1340.04,186.8225753,0.0218175806279871
"445",445,499000,"4bd2ba1,772 sqft","5705 Thames Dr","Austin",78723,"TX",-97.6867133,30.3097981,"5705 thames dr, austin, tx 78723, usa",1772,2,4,281.6,182.6465259,0.0893319913248303
"446",446,1297000,"4bd4ba4,106 sqft","123 Golf Crest Cv","Lakeway",78734,"TX",-97.9636983,30.3573188,"123 golf crest cove, lakeway, tx 78734, usa",4106,4,4,315.88,181.3563368,0.0466091844768766
"447",447,499000,"3bd3ba2,042 sqft","15420 Quinley Dr","Austin",78728,"TX",-97.6864165,30.4588832,"15420 quinley dr, austin, tx 78728, usa",2042,3,3,244.37,188.3125776,0.0252844543042301
"448",448,3290000,"4bd6ba4,422 sqft (on 1.02 acres)","54 Saint Stephens School Rd","Austin",78746,"TX",-97.8306338,30.3157376,"54 st stephens school rd, austin, tx 78746, usa",4422,6,4,744.01,187.3199447,0.0136646768158181
"449",449,549000,"3bd2ba1,680 sqft","7206 Towering Oaks Dr","Austin",78745,"TX",-97.8165493,30.2036564,"7206 towering oaks dr, austin, tx 78745, usa",1680,2,3,326.79,178.8777528,0.0352423259192945
"450",450,485000,"3bd3ba1,040 sqft","806 W 24th St","Austin",78705,"TX",-97.7451078,30.2888657,"806 w 24th st, austin, tx 78705, usa",1040,3,3,466.35,181.684536,0.0456388756034551
"451",451,6e+05,"1bd1ba856 sqft","800 Embassy Dr","Austin",78702,"TX",-97.7322726,30.2675703,"800 embassy dr, austin, tx 78702, usa",856,1,1,700.93,168.0558999,0.093149283650754
"452",452,1700000,"4bd4ba3,278 sqft (on 0.25 acres)","1802 E 21st St","Austin",78722,"TX",-97.7223424,30.2819497,"1802 e 21st st, austin, tx 78722, usa",3278,4,4,518.61,212.3135501,0.0278554130720796
"453",453,2950000,"4bd4ba2,650 sqft","1414 Alameda Dr","Austin",78704,"TX",-97.7430071,30.2473603,"1414 alameda dr, austin, tx 78704, usa",2650,4,4,1113.21,203.2098655,0.0205171862239785
"454",454,1850000,"4bd4ba2,805 sqft","1801 Crown Dr","Austin",78745,"TX",-97.7883887,30.2253158,"1801 crown dr, austin, tx 78745, usa",2805,4,4,659.54,173.2062188,0.0156453786608704
"455",455,312000,"2bd2ba1,069 sqft","11970 Jollyville Rd","Austin",78759,"TX",-97.7586203,30.4265001,"11970 jollyville rd, austin, tx 78759, usa",1069,2,2,291.86,183.591379,0.0317917763677485
"456",456,1099000,"4bd3ba2,687 sqft (on 0.52 acres)","7209 Foxtree Cv","Austin",78750,"TX",-97.7957782,30.3813524,"7209 foxtree cove, austin, tx 78750, usa",2687,3,4,409.01,209.9928769,0.0864938813567375
"457",457,475000,"2bd2ba1,408 sqft","6411 Paintbrush Holw","Austin",78750,"TX",-97.789822,30.3734858,"6411 paintbrush hollow, austin, tx 78750, usa",1408,2,2,337.36,184.5256097,0.0849788992145128
"458",458,1465000,"3bd2ba1,890 sqft","2506 Ann Arbor Ave","Austin",78704,"TX",-97.7792166,30.2475421,"2506 ann arbor ave, austin, tx 78704, usa",1890,2,3,775.13,182.0959743,0.0206340268562029
"459",459,385000,"2bd3ba1,417 sqft","1101 E Parmer Ln","Austin",78753,"TX",-97.6558409,30.3968126,"1101 e parmer ln, austin, tx 78753, usa",1417,3,2,271.7,164.3759939,0.0352431934955904
"460",460,599900,"3bd2ba1,126 sqft","916 Chote Ave","Austin",78702,"TX",-97.696764,30.2611078,"916 chote ave, austin, tx 78702, usa",1126,2,3,532.77,202.1747846,0.0501336622851939
"461",461,654000,"4bd2ba1,633 sqft","1401 Astor Pl","Austin",78721,"TX",-97.6880703,30.2817296,"1401 astor pl, austin, tx 78721, usa",1633,2,4,400.49,200.3871996,0.0478438221679029
"462",462,425000,"3bd2ba1,097 sqft (on 0.40 acres)","1902 Whitebead Trl","Austin",78734,"TX",-97.9276546,30.3748285,"1902 whitebead trail, austin, tx 78734, usa",1097,2,3,387.42,187.6367017,0.0415788411435958
"463",463,9e+05,"3bd3ba2,276 sqft","5700 Adams Ave","Austin",78756,"TX",-97.7390604,30.332094,"5700 adams ave, austin, tx 78756, usa",2276,3,3,395.43,193.9071264,0.0275691389814611
"464",464,349900,"2bd2ba1,045 sqft","512 Eberhart Ln","Austin",78745,"TX",-97.7829957,30.2009949,"512 eberhart ln, austin, tx 78745, usa",1045,2,2,334.83,187.5262972,0.037453451668092
"465",465,310000,"2bd2ba1,148 sqft","7000 Bethune Ave","Austin",78752,"TX",-97.6994749,30.3288328,"7000 bethune ave, austin, tx 78752, usa",1148,2,2,270.03,222.3372496,0.0584672683303061
"466",466,1e+06,"3bd3ba1,958 sqft","1808 Village Oak Ct","Austin",78704,"TX",-97.7760746,30.2432943,"1808 village oak ct, austin, tx 78704, usa",1958,3,3,510.73,203.5152011,0.0252055450261305
"467",467,979000,"3bd4ba2,190 sqft","2818 Tom Miller St","Austin",78723,"TX",-97.6993663,30.2902503,"2818 tom miller st, austin, tx 78723, usa",2190,4,3,447.03,205.1120613,0.0220641260755668
"468",468,575000,"4bd3ba2,077 sqft (on 0.28 acres)","108 S Meadowlark St","Lakeway",78734,"TX",-97.9496871,30.3644623,"108 s meadowlark st, lakeway, tx 78734, usa",2077,3,4,276.84,202.3409291,0.0955071528134052
"469",469,2270000,"5bd5ba4,229 sqft (on 0.37 acres)","307 Dolcetto Ct","Lakeway",78738,"TX",-98.0128142,30.3553456,"307 dolcetto ct, lakeway, tx 78738, usa",4229,5,5,536.77,184.0035869,NA
"470",470,619000,"Studio1,440 sqft (on 0.50 acres)","1616 Webberville Rd","Austin",78721,"TX",-97.6790385,30.2809614,"1616 webberville rd, austin, tx 78721, usa",1440,NA,1,429.86,190.5340799,0.026294198939947
"471",471,399900,"3bd2ba1,379 sqft","1118 Colony North Dr","Austin",78758,"TX",-97.7108882,30.3571709,"1118 colony n dr, austin, tx 78758, usa",1379,2,3,289.99,189.7827104,0.0526795194416092
"472",472,850000,"3bd2ba1,919 sqft (on 0.38 acres)","401 Ramble Ln","Austin",78745,"TX",-97.776401,30.210165,"401 ramble ln, austin, tx 78745, usa",1919,2,3,442.94,206.5691792,0.477941120656213
"473",473,425000,"2bd2ba1,081 sqft","4361 S Congress Ave","Austin",78745,"TX",-97.7667556,30.2177976,"4361 s congress ave, austin, tx 78745, usa",1081,2,2,393.15,175.7741286,0.0462527216797671
"474",474,1300000,"4bd3ba2,326 sqft","4506 Bull Creek Rd","Austin",78731,"TX",-97.7533629,30.3213973,"4506 bull creek rd, austin, tx 78731, usa",2326,3,4,558.9,177.606327,0.465605012983323
"475",475,1049900,"4bd5ba3,226 sqft (on 1 acre)","9805 Peakridge Dr","Austin",78737,"TX",-97.9325161,30.2258658,"9805 peakridge dr, austin, tx 78737, usa",3226,5,4,325.45,205.664174,0.0336929592633937
"476",476,799000,"4bd3ba2,901 sqft (on 0.28 acres)","2724 Arroyo Blanco Cv","Austin",78748,"TX",-97.8518615,30.1555247,"2724 arroyo blanco cove, austin, tx 78748, usa",2901,3,4,275.42,205.845603,NA
"477",477,5e+05,"3bd2ba1,072 sqft","7518 Crest Dr","Austin",78752,"TX",-97.705158,30.3317278,"austin, tx 78752, usa",1072,2,3,466.42,176.3271741,0.0409645809865914
"478",478,420000,"5bd3ba1,205 sqft","13015 Carswell St","Austin",78754,"TX",-97.6019127,30.3782867,"13015 carswell st, austin, tx 78754, usa",1205,3,5,348.55,186.5166282,NA
"479",479,949000,"2bd1ba1,377 sqft","1801 Lavaca St","Austin",78701,"TX",-97.7403971,30.2807704,"cambridge tower, 1801 lavaca st, austin, tx 78701, usa",1377,1,2,689.18,165.8039048,0.0218756514604258
"480",480,330000,"2bd1ba884 sqft","12032 Shropshire Blvd","Austin",78753,"TX",-97.6595371,30.3849886,"12032 shropshire blvd, austin, tx 78753, usa",884,1,2,373.3,175.9380478,0.0381191698865512
"481",481,1825000,"6bd8ba5,403 sqft (on 0.36 acres)","717 Santaluz Path","Austin",78732,"TX",-97.9177094,30.3398496,"717 santaluz path, austin, tx 78732, usa",5403,8,6,337.78,193.2579908,NA
"482",482,375000,"1bd1ba710 sqft","2500 Longview St","Austin",78705,"TX",-97.7509178,30.2898281,"2500 longview st, austin, tx 78705, usa",710,1,1,528.17,173.2503601,0.0183816496168931
"483",483,850000,"4bd3ba2,779 sqft","6018 Tributary Ridge Dr","Austin",78759,"TX",-97.7624255,30.4118184,"6018 tributary ridge dr, austin, tx 78759, usa",2779,3,4,305.87,188.4043196,0.0146290412890948
"484",484,998000,"4bd3ba3,263 sqft (on 0.46 acres)","9 Cheverly Ct","The hills",78738,"TX",-97.9847252,30.3433535,"9 cheverly ct, the hills, tx 78738, usa",3263,3,4,305.85,205.2882603,0.0374747379832365
"485",485,669000,"4bd3ba2,023 sqft","2613 Dryden St","Austin",78748,"TX",-97.837794,30.1699009,"2613 dryden st, austin, tx 78748, usa",2023,3,4,330.7,184.1877498,0.0508787685592995
"486",486,325000,"2bd1ba725 sqft","1307 E 52nd St","Austin",78723,"TX",-97.7053951,30.308228,"1307 e 52nd st, austin, tx 78723, usa",725,1,2,448.28,171.3305163,0.0360311841241428
"487",487,549900,"Studio2,218 sqft","100 Florence Dr","Austin",78753,"TX",-97.6971033,30.3543585,"100 florence dr, austin, tx 78753, usa",2218,NA,1,247.93,176.4756912,0.0104812639642569
"488",488,450000,"3bd3ba2,411 sqft","6721 Sunderland Trl","Austin",78747,"TX",-97.7443651,30.1477099,"6721 sunderland trail, austin, tx 78747, usa",2411,3,3,186.64,181.3884245,0.0743865291384191
"489",489,1100000,"3bd3ba1,952 sqft","4705 Arapahoe Pass","Austin",78745,"TX",-97.7997705,30.2266092,"4705 arapahoe pass, austin, tx 78745, usa",1952,3,3,563.52,187.6116521,0.0231093604378474
"490",490,489000,"3bd3ba1,895 sqft","16332 Travesia Way","Austin",78728,"TX",-97.6827698,30.4720682,"preston village, 16332 travesia way, austin, tx 78728, usa",1895,3,3,258.05,192.6704308,0.0463781498865526
"491",491,899900,"3bd2ba1,416 sqft (on 0.50 acres)","1317 Morgan Ln","Austin",78704,"TX",-97.7804056,30.2287024,"1317 morgan ln, austin, tx 78704, usa",1416,2,3,635.52,177.9758709,0.0205692100636571
"492",492,495000,"3bd2ba1,634 sqft","7404 Lady Suzannes Ct","Austin",78729,"TX",-97.7604516,30.441347,"7404 lady suzannes ct, austin, tx 78729, usa",1634,2,3,302.94,154.1175555,0.529393803116562
"493",493,2500000,"5bd5ba4,484 sqft (on 0.30 acres)","3201 Kittowa Cv","Austin",78746,"TX",-97.7825286,30.3181862,"3201 kittowa cove, austin, tx 78746, usa",4484,5,5,557.54,179.9661738,0.0358132685785313
"494",494,609000,"3bd3ba1,820 sqft (on 0.25 acres)","5301 Sendero Hills Pkwy","Austin",78724,"TX",-97.6471608,30.2822916,"5301 sendero hills pkwy, austin, tx 78724, usa",1820,3,3,334.62,196.4123933,0.0502439995409798
"495",495,1699000,"5bd5ba5,111 sqft (on 0.42 acres)","10808 Straw Flower Dr","Austin",78733,"TX",-97.898291,30.316522,"10808 straw flower dr, austin, tx 78733, usa",5111,5,5,332.42,207.2298552,NA
"496",496,865000,"3bd3ba2,612 sqft (on 0.48 acres)","14213 Red Feather Trl","Austin",78734,"TX",-97.919373,30.3807555,"14213 red feather trail, austin, tx 78734, usa",2612,3,3,331.16,165.9705144,0.0280075243055251
"497",497,1075000,"3bd2ba1,381 sqft (on 0.46 acres)","4603 Chiappero Trl","Austin",78731,"TX",-97.7500947,30.3206958,"4603 chiappero trail, austin, tx 78731, usa",1381,2,3,778.42,205.3945119,0.582734780770741
"498",498,2200000,"5bd4ba4,968 sqft (on 1 acre)","9824 Westminster Glen Ave","Austin",78730,"TX",-97.8488437,30.3647932,"9824 westminster glen ave, austin, tx 78730, usa",4968,4,5,442.83,189.0023076,NA
"499",499,850000,"Studio","403 Ramble Ln","Austin",78745,"TX",-97.7765417,30.2102499,"403 ramble ln, austin, tx 78745, usa",NA,NA,1,NA,192.5195865,0.148478147064615
"500",500,429000,"3bd2ba1,592 sqft","6300 Garden Rose Path","Austin",78754,"TX",-97.6213133,30.347522,"6300 garden rose path, austin, tx 78754, usa",1592,2,3,269.47,213.5742069,0.05980326713749
"501",501,325000,"4bd3ba1,704 sqft","15104 Sabal Palm Rd","Austin",78724,"TX",-97.5786646,30.2569806,"15104 sabal palm rd, austin, tx 78724, usa",1704,3,4,190.73,150.104069,0.0498345509041397
"502",502,595000,"3bd3ba2,195 sqft","15203 Lariat Trl","Austin",78734,"TX",-97.9326012,30.3868189,"15203 lariat trail, austin, tx 78734, usa",2195,3,3,271.07,209.0266014,0.0586152746992635
"503",503,575000,"4bd2ba2,103 sqft","11512 Powder Mill Trl","Austin",78750,"TX",-97.8175689,30.4598918,"11512 powder mill trail, austin, tx 78750, usa",2103,2,4,273.42,177.6817175,0.0351861302539744
"504",504,575000,"Studio","16110 Clara Van St","Austin",78734,"TX",-97.956951,30.371819,"16110 clara van st, austin, tx 78734, usa",NA,NA,1,NA,199.7801672,NA
"505",505,550000,"3bd2ba2,092 sqft (on 0.31 acres)","1005 Salem Ln","Austin",78753,"TX",-97.6771305,30.3655605,"1005 salem ln, austin, tx 78753, usa",2092,2,3,262.91,181.3378229,0.0268332877225633
"506",506,789900,"3bd3ba1,569 sqft","8005 Tisdale Dr","Austin",78757,"TX",-97.7177181,30.3526496,"8005 tisdale dr, austin, tx 78757, usa",1569,3,3,503.44,183.5069129,0.0244948855920761
"507",507,699000,"3bd2ba1,738 sqft","2107 Cimarron Trl","Austin",78745,"TX",-97.7926355,30.2279749,"2107 cimarron trail, austin, tx 78745, usa",1738,2,3,402.19,203.4013953,0.0355479584439242
"508",508,390000,"3bd3ba1,379 sqft","6130 Wagon Bnd","Austin",78744,"TX",-97.7578622,30.1903872,"6130 wagon bend, austin, tx 78744, usa",1379,3,3,282.81,194.7344038,0.0439460148658705
